[{"business_id": "BqsIt1BQKzS-hEKLYzBm7g", "name": "Domino's Pizza", "neighborhood": "", "address": "3130 Dallas Hgh Shls Hwy", "city": "Dallas", "state": "NC", "postal_code": "28034", "latitude": 35.3187531, "longitude": -81.1896232, "stars": 3.0, "review_count": 4, "is_open": 1, "attributes": {"Caters": true, "RestaurantsReservations": false, "BusinessAcceptsCreditCards": true, "RestaurantsDelivery": true, "RestaurantsTakeOut": true, "GoodForKids": true, "WheelchairAccessible": false}, "categories": ["Sandwiches", "Pizza", "Chicken Wings", "Restaurants"], "hours": {"Monday": "10:30-0:00", "Tuesday": "10:30-0:00", "Friday": "10:30-1:00", "Wednesday": "10:30-0:00", "Thursday": "10:30-0:00", "Sunday": "10:30-0:00", "Saturday": "10:30-1:00"}}, {"business_id": "x92N9BWbFJGf55wJS_QFZg", "name": "Waffle House", "neighborhood": "", "address": "1100 Dallas Cherryville Hwy", "city": "Dallas", "state": "NC", "postal_code": "28034", "latitude": 35.3157236, "longitude": -81.1934143, "stars": 4.0, "review_count": 7, "is_open": 1, "attributes": {"BusinessAcceptsCreditCards": true, "RestaurantsAttire": "casual", "BikeParking": true}, "categories": ["Restaurants", "Burgers", "Fast Food", "Diners", "Breakfast & Brunch", "American (Traditional)"], "hours": {"Monday": "0:00-0:00", "Tuesday": "0:00-0:00", "Friday": "0:00-0:00", "Wednesday": "0:00-0:00", "Thursday": "0:00-0:00", "Sunday": "0:00-0:00", "Saturday": "0:00-0:00"}}, {"business_id": "KxYpQHzuBlnAMmDlxrAoeA", "name": "Long Creek Fish Fry", "neighborhood": "", "address": "1031 Lower Dallas Rd", "city": "Dallas", "state": "NC", "postal_code": "28034", "latitude": 35.312525, "longitude": -81.157819, "stars": 4.5, "review_count": 3, "is_open": 1, "attributes": {}, "categories": ["Restaurants", "Seafood"], "hours": {"Sunday": "15:00-21:00", "Friday": "11:00-21:30", "Wednesday": "15:00-21:00", "Thursday": "15:00-21:00", "Saturday": "15:00-21:30"}}, {"business_id": "Kf2YlZtJR6nf8zWM-cIZ5g", "name": "Ingle's Market Inc Number 146", "neighborhood": "", "address": "715 W Trade St", "city": "Dallas", "state": "NC", "postal_code": "28034", "latitude": 35.3154894, "longitude": -81.184917, "stars": 4.0, "review_count": 4, "is_open": 1, "attributes": {"BusinessAcceptsCreditCards": true, "RestaurantsPriceRange2": 2, "BusinessParking": {"garage": false, "street": false, "validated": false, "lot": false, "valet": false}, "BikeParking": true, "RestaurantsTakeOut": true}, "categories": ["Grocery", "Food"], "hours": {}}, {"business_id": "fVq3EevzI-eWvPyatqPWkA", "name": "Ole Dallas Brewery", "neighborhood": "", "address": "136 Durkee Ln", "city": "Dallas", "state": "NC", "postal_code": "28034", "latitude": 35.3160159173, "longitude": -81.2189732292, "stars": 5.0, "review_count": 6, "is_open": 1, "attributes": {"Alcohol": "beer_and_wine", "HasTV": false, "CoatCheck": false, "WiFi": "no", "RestaurantsReservations": false, "OutdoorSeating": true, "BusinessAcceptsCreditCards": true, "RestaurantsPriceRange2": 1, "WheelchairAccessible": true, "Smoking": "outdoor", "Ambience": {"romantic": false, "intimate": false, "classy": false, "hipster": false, "divey": false, "touristy": false, "trendy": false, "upscale": false, "casual": false}, "RestaurantsTakeOut": false, "RestaurantsGoodForGroups": true, "HappyHour": false, "GoodForDancing": false}, "categories": ["Beer Bar", "Food", "Breweries", "Bars", "Nightlife"], "hours": {"Sunday": "13:00-18:00", "Friday": "15:00-21:00", "Saturday": "12:00-22:00", "Thursday": "16:00-22:00"}}, {"business_id": "7PdNq6hdzVvil8zuVJ6loQ", "name": "Arby's", "neighborhood": "", "address": "1009 Dallas Chrryvlle Hwy", "city": "Dallas", "state": "NC", "postal_code": "28034", "latitude": 35.3151156, "longitude": -81.1914178, "stars": 3.0, "review_count": 5, "is_open": 1, "attributes": {}, "categories": ["Fast Food", "Sandwiches", "Restaurants"], "hours": {"Monday": "10:00-22:00", "Tuesday": "10:00-22:00", "Friday": "10:00-23:00", "Wednesday": "10:00-22:00", "Thursday": "10:00-22:00", "Sunday": "11:00-22:00", "Saturday": "10:00-23:00"}}, {"business_id": "VIfREGnBYJ6HVnWfArVb_A", "name": "The Country Kitchen", "neighborhood": "", "address": "116 E Main St", "city": "Dallas", "state": "NC", "postal_code": "28034", "latitude": 35.3156475, "longitude": -81.1748462, "stars": 4.0, "review_count": 5, "is_open": 1, "attributes": {"Alcohol": "none", "HasTV": true, "NoiseLevel": "average", "RestaurantsAttire": "casual", "BusinessAcceptsCreditCards": true, "Ambience": {"romantic": false, "intimate": false, "classy": false, "hipster": false, "divey": false, "touristy": false, "trendy": false, "upscale": false, "casual": false}, "RestaurantsGoodForGroups": true, "WiFi": "free", "RestaurantsReservations": false, "BusinessAcceptsBitcoin": false, "RestaurantsTableService": true, "RestaurantsTakeOut": true, "GoodForKids": true, "WheelchairAccessible": true, "DogsAllowed": false, "BikeParking": true, "OutdoorSeating": false, "RestaurantsPriceRange2": 1, "RestaurantsDelivery": true, "GoodForMeal": {"dessert": false, "latenight": false, "lunch": false, "dinner": false, "breakfast": false, "brunch": false}, "BusinessParking": {"garage": false, "street": false, "validated": false, "lot": true, "valet": false}, "DriveThru": false}, "categories": ["Breakfast & Brunch", "Restaurants", "Burgers", "Southern"], "hours": {"Monday": "6:30-20:00", "Tuesday": "6:30-15:00", "Friday": "6:30-21:00", "Wednesday": "6:30-19:00", "Thursday": "6:30-20:00", "Saturday": "6:30-14:00"}}, {"business_id": "F8Xdd9pqpgfdZxIIh5_tLQ", "name": "Burger King", "neighborhood": "", "address": "3100 Dallas High Shoals Hwy", "city": "Dallas", "state": "NC", "postal_code": "28034", "latitude": 35.317174, "longitude": -81.189375, "stars": 1.0, "review_count": 4, "is_open": 1, "attributes": {"RestaurantsTakeOut": true, "NoiseLevel": "average", "GoodForKids": true}, "categories": ["Fast Food", "Restaurants", "Burgers"], "hours": {}}, {"business_id": "vm17ueG3HPdlC0CQy82Wxw", "name": "Riverside Fish House", "neighborhood": "", "address": "1351 Dallas Stanley Hwy", "city": "Dallas", "state": "NC", "postal_code": "28034", "latitude": 35.329852, "longitude": -81.134431, "stars": 4.0, "review_count": 6, "is_open": 1, "attributes": {"GoodForMeal": {"dessert": false, "latenight": false, "lunch": false, "dinner": false, "breakfast": false, "brunch": false}, "BusinessParking": {"garage": false, "street": false, "validated": false, "lot": false, "valet": false}, "HasTV": false, "RestaurantsGoodForGroups": true, "NoiseLevel": "loud", "RestaurantsAttire": "casual", "RestaurantsReservations": true, "OutdoorSeating": true, "BusinessAcceptsCreditCards": true, "RestaurantsPriceRange2": 2, "BikeParking": true, "RestaurantsDelivery": false, "Ambience": {"romantic": false, "intimate": false, "classy": false, "hipster": false, "divey": false, "touristy": false, "trendy": false, "upscale": false, "casual": false}, "RestaurantsTakeOut": true, "GoodForKids": true, "RestaurantsTableService": true}, "categories": ["Restaurants", "Seafood", "Southern"], "hours": {"Tuesday": "16:00-20:30", "Friday": "16:00-21:00", "Wednesday": "16:00-20:30", "Thursday": "16:00-20:30", "Sunday": "12:00-20:00", "Saturday": "15:00-21:30"}}, {"business_id": "7FPYgKjPu7c2qTcRyBq5DQ", "name": "Double Dragon Chinese Restaurant", "neighborhood": "", "address": "3130 Dallas High Shoals Hwy", "city": "Dallas", "state": "NC", "postal_code": "28034", "latitude": 35.3182771, "longitude": -81.1898486, "stars": 3.0, "review_count": 5, "is_open": 1, "attributes": {"GoodForMeal": {"dessert": false, "latenight": false, "lunch": true, "dinner": false, "breakfast": false, "brunch": false}, "GoodForKids": true, "RestaurantsAttire": "casual", "RestaurantsReservations": true, "BusinessAcceptsCreditCards": true, "RestaurantsPriceRange2": 2, "RestaurantsDelivery": false, "RestaurantsTakeOut": true, "RestaurantsGoodForGroups": true}, "categories": ["Chinese", "Restaurants"], "hours": {"Monday": "11:00-22:00", "Tuesday": "11:00-22:00", "Friday": "11:00-22:30", "Wednesday": "11:00-22:00", "Thursday": "11:00-22:00", "Sunday": "11:00-22:00", "Saturday": "11:00-22:30"}}, {"business_id": "81RW1hZc9YL6HolVWjeTBw", "name": "McDonald's", "neighborhood": "", "address": "3117 Dallas High Shls Hwy", "city": "Dallas", "state": "NC", "postal_code": "28034", "latitude": 35.316524, "longitude": -81.190409, "stars": 1.5, "review_count": 3, "is_open": 1, "attributes": {"GoodForMeal": {"dessert": false, "latenight": false, "lunch": false, "dinner": false, "breakfast": false, "brunch": false}, "GoodForKids": true, "RestaurantsAttire": "casual", "RestaurantsReservations": false, "BusinessAcceptsCreditCards": true, "RestaurantsDelivery": false, "RestaurantsTakeOut": true, "RestaurantsGoodForGroups": true}, "categories": ["Burgers", "Restaurants", "Fast Food"], "hours": {}}, {"business_id": "w1ZaGNJdwMQa3QvIxAW4Sg", "name": "Pita Wheel", "neighborhood": "", "address": "1108 E Main St", "city": "Dallas", "state": "NC", "postal_code": "28034", "latitude": 35.312618, "longitude": -81.1609268188, "stars": 4.5, "review_count": 11, "is_open": 1, "attributes": {"GoodForMeal": {"dessert": false, "latenight": false, "lunch": false, "dinner": false, "breakfast": false, "brunch": false}, "BusinessParking": {"garage": false, "street": false, "validated": false, "lot": false, "valet": false}, "Caters": false, "RestaurantsGoodForGroups": true, "WiFi": "free", "RestaurantsAttire": "casual", "RestaurantsReservations": false, "BusinessAcceptsCreditCards": true, "RestaurantsPriceRange2": 1, "BikeParking": true, "Ambience": {"romantic": false, "intimate": false, "classy": false, "hipster": false, "divey": false, "touristy": false, "trendy": false, "upscale": false, "casual": false}, "RestaurantsTakeOut": true, "GoodForKids": true}, "categories": ["Greek", "Food", "Food Trucks", "Restaurants"], "hours": {"Monday": "11:00-21:00", "Tuesday": "11:00-21:00", "Friday": "11:00-21:00", "Wednesday": "11:00-21:00", "Thursday": "11:00-21:00", "Saturday": "11:00-21:00"}}, {"business_id": "GvMirXtuhQHO3ehnb1gGNw", "name": "Starbucks", "neighborhood": "", "address": "715 W Trade St", "city": "Dallas", "state": "NC", "postal_code": "28034", "latitude": 35.3154894, "longitude": -81.184917, "stars": 3.5, "review_count": 3, "is_open": 1, "attributes": {}, "categories": ["Coffee & Tea", "Food"], "hours": {"Monday": "6:00-21:00", "Tuesday": "6:00-21:00", "Friday": "6:00-21:00", "Wednesday": "6:00-21:00", "Thursday": "6:00-21:00", "Sunday": "6:00-21:00", "Saturday": "6:00-21:00"}}, {"business_id": "dUhYjBM3QHkPKV7Z63ottQ", "name": "Long Creek Fish Fry", "neighborhood": "", "address": "1425 Lower Dallas Hwy", "city": "Dallas", "state": "NC", "postal_code": "28034", "latitude": 35.3044133, "longitude": -81.1581376, "stars": 4.0, "review_count": 32, "is_open": 0, "attributes": {"RestaurantsTableService": true, "GoodForMeal": {"dessert": false, "latenight": false, "lunch": true, "dinner": true, "breakfast": false, "brunch": false}, "Alcohol": "none", "Caters": true, "HasTV": false, "RestaurantsGoodForGroups": true, "NoiseLevel": "average", "WiFi": "no", "RestaurantsAttire": "casual", "RestaurantsReservations": false, "OutdoorSeating": false, "BusinessAcceptsCreditCards": true, "RestaurantsPriceRange2": 1, "BikeParking": false, "RestaurantsDelivery": false, "Ambience": {"romantic": false, "intimate": false, "classy": false, "hipster": false, "divey": false, "touristy": false, "trendy": false, "upscale": false, "casual": true}, "RestaurantsTakeOut": true, "GoodForKids": true, "BusinessParking": {"garage": false, "street": false, "validated": false, "lot": true, "valet": false}}, "categories": ["Restaurants", "Seafood"], "hours": {}}, {"business_id": "IQJ769ftxu00hi_NkXQfcw", "name": "Tommy's Drive-In", "neighborhood": "", "address": "2708 Gastonia Dallas Hwy", "city": "Dallas", "state": "NC", "postal_code": "28034", "latitude": 35.2971261, "longitude": -81.1873045, "stars": 3.0, "review_count": 12, "is_open": 1, "attributes": {"RestaurantsTableService": true, "GoodForMeal": {"dessert": false, "latenight": false, "lunch": false, "dinner": false, "breakfast": false, "brunch": false}, "Alcohol": "none", "Caters": false, "HasTV": true, "RestaurantsGoodForGroups": true, "NoiseLevel": "average", "WiFi": "no", "RestaurantsAttire": "casual", "RestaurantsReservations": false, "OutdoorSeating": true, "BusinessAcceptsCreditCards": true, "RestaurantsPriceRange2": 1, "BikeParking": true, "RestaurantsDelivery": false, "Ambience": {"romantic": false, "intimate": false, "classy": false, "hipster": false, "divey": false, "touristy": false, "trendy": false, "upscale": false, "casual": false}, "RestaurantsTakeOut": true, "GoodForKids": true, "WheelchairAccessible": false, "BusinessParking": {"garage": false, "street": false, "validated": false, "lot": false, "valet": false}}, "categories": ["Restaurants", "American (New)"], "hours": {"Monday": "11:00-21:00", "Tuesday": "11:00-21:00", "Friday": "11:00-21:00", "Wednesday": "11:00-21:00", "Thursday": "11:00-21:00", "Sunday": "11:00-21:00", "Saturday": "11:00-21:00"}}, {"business_id": "PrchY9Revlm2PZ0bju2c7A", "name": "North Star Seafood Restaurant", "neighborhood": "", "address": "Old US 321 Hwy", "city": "Dallas", "state": "NC", "postal_code": "28034", "latitude": 35.3193653597, "longitude": -81.1911796482, "stars": 3.5, "review_count": 10, "is_open": 1, "attributes": {"RestaurantsTableService": true, "GoodForMeal": {"dessert": false, "latenight": false, "lunch": false, "dinner": false, "breakfast": false, "brunch": false}, "Alcohol": "none", "Caters": true, "HasTV": false, "RestaurantsGoodForGroups": true, "NoiseLevel": "average", "RestaurantsAttire": "casual", "RestaurantsReservations": false, "OutdoorSeating": false, "BusinessAcceptsCreditCards": true, "RestaurantsPriceRange2": 2, "BikeParking": true, "RestaurantsDelivery": false, "Ambience": {"romantic": false, "intimate": false, "classy": false, "hipster": false, "divey": false, "touristy": false, "trendy": false, "upscale": false, "casual": false}, "RestaurantsTakeOut": true, "GoodForKids": true, "BusinessParking": {"garage": false, "street": false, "validated": false, "lot": false, "valet": false}}, "categories": ["Restaurants", "Seafood"], "hours": {"Monday": "11:00-21:00", "Tuesday": "11:00-21:00", "Friday": "11:00-21:30", "Wednesday": "11:00-21:00", "Thursday": "11:00-21:00", "Saturday": "11:00-21:30"}}, {"business_id": "PmG45euNFEQkXG5yaVYKWA", "name": "Papa's Pizza To Go", "neighborhood": "", "address": "106 N Gaston St", "city": "Dallas", "state": "NC", "postal_code": "28034", "latitude": 35.3155716, "longitude": -81.1756406, "stars": 4.5, "review_count": 7, "is_open": 1, "attributes": {"RestaurantsTableService": false, "GoodForMeal": {"dessert": false, "latenight": false, "lunch": true, "dinner": false, "breakfast": false, "brunch": false}, "Alcohol": "none", "Caters": false, "HasTV": false, "RestaurantsGoodForGroups": false, "WiFi": "no", "RestaurantsAttire": "casual", "RestaurantsReservations": false, "OutdoorSeating": true, "BusinessAcceptsCreditCards": true, "RestaurantsPriceRange2": 1, "BikeParking": false, "RestaurantsDelivery": true, "Ambience": {"romantic": false, "intimate": false, "classy": false, "hipster": false, "divey": false, "touristy": false, "trendy": false, "upscale": false, "casual": false}, "RestaurantsTakeOut": true, "GoodForKids": true, "BusinessParking": {"garage": false, "street": false, "validated": false, "lot": false, "valet": false}}, "categories": ["Restaurants", "Pizza", "Fast Food", "Food", "Salad", "Desserts"], "hours": {"Monday": "11:00-21:00", "Tuesday": "11:00-21:00", "Friday": "11:00-22:00", "Wednesday": "11:00-21:00", "Thursday": "11:00-21:00", "Sunday": "12:00-21:00", "Saturday": "11:00-22:00"}}]