[{"business_id": "T7MRk8fxSBJD_c5qhHDe7w", "name": "Rocky River Vineyards", "neighborhood": "", "address": "11685 Reed Mine Rd", "city": "Midland", "state": "NC", "postal_code": "28107", "latitude": 35.2633565, "longitude": -80.4647107, "stars": 4.5, "review_count": 20, "is_open": 1, "attributes": {"Alcohol": "beer_and_wine", "Caters": false, "BusinessAcceptsCreditCards": true, "RestaurantsPriceRange2": 2, "BusinessAcceptsBitcoin": false, "BikeParking": false, "RestaurantsTakeOut": false, "GoodForKids": true, "ByAppointmentOnly": false, "WheelchairAccessible": true, "BusinessParking": {"garage": false, "street": false, "validated": false, "lot": true, "valet": false}}, "categories": ["Local Flavor", "Venues & Event Spaces", "Food", "Arts & Entertainment", "Event Planning & Services", "Wineries", "Party & Event Planning"], "hours": {"Tuesday": "10:00-18:00", "Friday": "10:00-18:00", "Wednesday": "10:00-18:00", "Thursday": "10:00-18:00", "Sunday": "13:00-18:00", "Saturday": "10:00-18:00"}}, {"business_id": "vrYVTEjJO-aSRcnQHXmmkw", "name": "Terry's Kitchen", "neighborhood": "", "address": "10585 Flowes Store Rd", "city": "Midland", "state": "NC", "postal_code": "28107", "latitude": 35.2708474, "longitude": -80.5763396, "stars": 4.5, "review_count": 3, "is_open": 1, "attributes": {"Alcohol": "none", "Caters": true, "HasTV": true, "RestaurantsGoodForGroups": true, "NoiseLevel": "quiet", "RestaurantsAttire": "casual", "RestaurantsReservations": false, "BusinessAcceptsCreditCards": false, "RestaurantsPriceRange2": 1, "RestaurantsTableService": true, "RestaurantsDelivery": false, "RestaurantsTakeOut": true, "GoodForKids": true}, "categories": ["Restaurants", "American (Traditional)", "Caterers", "Event Planning & Services", "Breakfast & Brunch"], "hours": {"Tuesday": "7:00-14:00", "Friday": "17:00-21:00", "Wednesday": "7:00-14:00", "Thursday": "7:00-14:00", "Saturday": "7:00-14:00"}}, {"business_id": "qSQWoKgldxhMG9CKwwzt9g", "name": "Bob's Restaurant", "neighborhood": "", "address": "13230 Highway 601", "city": "Midland", "state": "NC", "postal_code": "28107", "latitude": 35.2352617, "longitude": -80.5064763, "stars": 3.0, "review_count": 3, "is_open": 1, "attributes": {"GoodForMeal": {"dessert": false, "latenight": false, "lunch": false, "dinner": false, "breakfast": false, "brunch": false}, "GoodForKids": true, "RestaurantsAttire": "casual", "OutdoorSeating": false, "BusinessAcceptsCreditCards": true, "RestaurantsPriceRange2": 2, "RestaurantsDelivery": true, "RestaurantsTakeOut": true, "RestaurantsGoodForGroups": true}, "categories": ["American (Traditional)", "Restaurants"], "hours": {}}, {"business_id": "7Yvdg9p4XEm8ZdyKrJWOYw", "name": "D'Anna's Kitchen", "neighborhood": "", "address": "11850 US 601", "city": "Midland", "state": "NC", "postal_code": "28107", "latitude": 35.2539568, "longitude": -80.5003305, "stars": 4.5, "review_count": 5, "is_open": 1, "attributes": {"GoodForMeal": {"dessert": false, "latenight": false, "lunch": false, "dinner": false, "breakfast": false, "brunch": false}, "HasTV": true, "NoiseLevel": "average", "RestaurantsAttire": "casual", "RestaurantsReservations": false, "BusinessAcceptsCreditCards": true, "RestaurantsDelivery": false, "Ambience": {"romantic": false, "intimate": false, "classy": false, "hipster": false, "divey": false, "touristy": false, "trendy": false, "upscale": false, "casual": false}, "RestaurantsTakeOut": true, "RestaurantsGoodForGroups": true}, "categories": ["Fast Food", "Desserts", "Restaurants", "Food", "American (New)"], "hours": {}}, {"business_id": "LxQhce0f4sy_1DUXoxXTvg", "name": "Metrolina Mulch", "neighborhood": "", "address": "3975 Hwy 24-27 E", "city": "Midland", "state": "NC", "postal_code": "28107", "latitude": 35.251121, "longitude": -80.50785, "stars": 5.0, "review_count": 5, "is_open": 1, "attributes": {}, "categories": ["Shopping", "Grocery", "Farmers Market", "Home & Garden", "Nurseries & Gardening", "Food"], "hours": {"Monday": "7:00-17:00", "Tuesday": "7:00-17:00", "Friday": "7:00-17:00", "Wednesday": "7:00-17:00", "Thursday": "7:00-17:00", "Saturday": "7:00-17:00"}}, {"business_id": "Mh1gek9Bl-VWKIEAgKmgjg", "name": "Pizza and Beyond", "neighborhood": "", "address": "251 Hwy 24 27 W", "city": "Midland", "state": "NC", "postal_code": "28107", "latitude": 35.247079, "longitude": -80.577136, "stars": 4.0, "review_count": 6, "is_open": 0, "attributes": {"RestaurantsTableService": true, "GoodForMeal": {"dessert": false, "latenight": false, "lunch": false, "dinner": false, "breakfast": false, "brunch": false}, "DogsAllowed": false, "Alcohol": "none", "HasTV": true, "RestaurantsGoodForGroups": true, "NoiseLevel": "average", "WiFi": "no", "RestaurantsAttire": "casual", "RestaurantsReservations": false, "OutdoorSeating": false, "BusinessAcceptsCreditCards": true, "RestaurantsPriceRange2": 2, "BikeParking": false, "RestaurantsDelivery": true, "Ambience": {"romantic": false, "intimate": false, "classy": false, "hipster": false, "divey": false, "touristy": false, "trendy": false, "upscale": false, "casual": false}, "RestaurantsTakeOut": true, "GoodForKids": true, "WheelchairAccessible": true, "BusinessParking": {"garage": false, "street": false, "validated": false, "lot": true, "valet": false}}, "categories": ["Pizza", "Restaurants"], "hours": {"Monday": "11:00-20:00", "Tuesday": "11:00-20:00", "Friday": "11:00-22:00", "Wednesday": "11:00-20:00", "Thursday": "11:00-20:00", "Sunday": "12:00-20:00", "Saturday": "11:00-22:00"}}, {"business_id": "glOwfW9YkWuiKyoUcnnpHw", "name": "Triple J BBQ", "neighborhood": "", "address": "4075 Hwy 24 27 E", "city": "Midland", "state": "NC", "postal_code": "28107", "latitude": 35.251292, "longitude": -80.505725, "stars": 4.5, "review_count": 9, "is_open": 1, "attributes": {"GoodForKids": true, "RestaurantsAttire": "casual", "RestaurantsReservations": false, "OutdoorSeating": true, "BusinessAcceptsCreditCards": true, "RestaurantsPriceRange2": 1, "RestaurantsTableService": false, "RestaurantsDelivery": false, "RestaurantsTakeOut": true, "RestaurantsGoodForGroups": false}, "categories": ["Barbeque", "Restaurants"], "hours": {"Tuesday": "11:00-21:00", "Friday": "11:00-21:00", "Wednesday": "11:00-21:00", "Thursday": "11:00-21:00", "Saturday": "11:00-21:00"}}, {"business_id": "BaaG4feI8yraphIcZ2YPMA", "name": "The Sundae Shop", "neighborhood": "", "address": "4400 Highway 24 27 E", "city": "Midland", "state": "NC", "postal_code": "28107", "latitude": 35.2512039, "longitude": -80.5006537, "stars": 4.5, "review_count": 16, "is_open": 1, "attributes": {"RestaurantsTableService": false, "GoodForMeal": {"dessert": true, "latenight": false, "lunch": true, "dinner": true, "breakfast": false, "brunch": false}, "Alcohol": "none", "Caters": false, "HasTV": false, "RestaurantsGoodForGroups": true, "NoiseLevel": "average", "WiFi": "no", "RestaurantsAttire": "casual", "RestaurantsReservations": false, "OutdoorSeating": true, "BusinessAcceptsCreditCards": false, "RestaurantsPriceRange2": 1, "BikeParking": true, "RestaurantsDelivery": false, "Ambience": {"romantic": false, "intimate": false, "classy": false, "hipster": false, "divey": false, "touristy": false, "trendy": false, "upscale": false, "casual": true}, "RestaurantsTakeOut": true, "GoodForKids": true, "DriveThru": false, "BusinessParking": {"garage": false, "street": false, "validated": false, "lot": true, "valet": false}}, "categories": ["Ice Cream & Frozen Yogurt", "Food", "Burgers", "Restaurants"], "hours": {"Monday": "11:00-20:00", "Tuesday": "11:00-20:00", "Friday": "11:00-21:00", "Thursday": "11:00-20:00", "Sunday": "14:00-21:00", "Saturday": "11:00-21:00"}}]