[{"business_id": "W-oHC268qtnU6qUrpKW41A", "name": "More Than Grilled Cheese Diner", "neighborhood": "", "address": "3536 Saw Mill Run Blvd", "city": "Brentwood", "state": "PA", "postal_code": "15227", "latitude": 40.3723038, "longitude": -79.982203, "stars": 4.5, "review_count": 9, "is_open": 1, "attributes": {"RestaurantsTableService": true, "GoodForMeal": {"dessert": false, "latenight": false, "lunch": true, "dinner": false, "breakfast": false, "brunch": false}, "Alcohol": "none", "Caters": true, "HasTV": true, "RestaurantsGoodForGroups": true, "NoiseLevel": "average", "WiFi": "free", "RestaurantsAttire": "casual", "RestaurantsReservations": false, "OutdoorSeating": false, "BusinessAcceptsCreditCards": true, "RestaurantsPriceRange2": 1, "WheelchairAccessible": true, "BikeParking": true, "RestaurantsDelivery": false, "Ambience": {"romantic": false, "intimate": false, "classy": false, "hipster": false, "divey": false, "touristy": false, "trendy": false, "upscale": false, "casual": false}, "RestaurantsTakeOut": true, "GoodForKids": true, "DriveThru": false, "BusinessParking": {"garage": false, "street": false, "validated": false, "lot": true, "valet": false}}, "categories": ["Breakfast & Brunch", "Restaurants", "Burgers", "Diners", "American (Traditional)"], "hours": {"Monday": "7:00-19:00", "Tuesday": "9:00-21:00", "Friday": "9:00-21:00", "Wednesday": "9:00-21:00", "Thursday": "9:00-21:00", "Sunday": "8:00-16:00", "Saturday": "9:00-21:00"}}, {"business_id": "cDIVM9ho73XXpVFzRNcLIw", "name": "E M Pizzeria", "neighborhood": "", "address": "4140 Clairton Blvd", "city": "Brentwood", "state": "PA", "postal_code": "15227", "latitude": 40.365021, "longitude": -79.9847037, "stars": 3.5, "review_count": 11, "is_open": 1, "attributes": {"GoodForMeal": {"dessert": false, "latenight": false, "lunch": false, "dinner": false, "breakfast": false, "brunch": false}, "Alcohol": "none", "HasTV": true, "RestaurantsGoodForGroups": false, "NoiseLevel": "average", "RestaurantsAttire": "casual", "RestaurantsReservations": false, "OutdoorSeating": false, "BusinessAcceptsCreditCards": true, "RestaurantsPriceRange2": 1, "RestaurantsDelivery": true, "Ambience": {"romantic": false, "intimate": false, "classy": false, "hipster": false, "divey": false, "touristy": false, "trendy": false, "upscale": false, "casual": false}, "RestaurantsTakeOut": true, "GoodForKids": true, "BusinessParking": {"garage": false, "street": false, "validated": false, "lot": false, "valet": false}}, "categories": ["Pizza", "Restaurants"], "hours": {"Monday": "11:00-23:00", "Tuesday": "11:00-23:00", "Friday": "11:00-0:00", "Wednesday": "11:00-23:00", "Thursday": "11:00-23:00", "Sunday": "11:00-23:00", "Saturday": "11:00-0:00"}}, {"business_id": "QeCkX3JI0dZiC6UK4tWl6A", "name": "Italian Village Pizza", "neighborhood": "", "address": "2713 Brownsville Rd", "city": "Brentwood", "state": "PA", "postal_code": "15227", "latitude": 40.3841292, "longitude": -79.9774173, "stars": 4.5, "review_count": 7, "is_open": 1, "attributes": {"GoodForMeal": {"dessert": false, "latenight": false, "lunch": false, "dinner": false, "breakfast": false, "brunch": false}, "Alcohol": "none", "HasTV": true, "RestaurantsGoodForGroups": true, "NoiseLevel": "quiet", "RestaurantsAttire": "casual", "RestaurantsReservations": false, "OutdoorSeating": false, "BusinessAcceptsCreditCards": true, "RestaurantsPriceRange2": 1, "BikeParking": true, "RestaurantsDelivery": true, "RestaurantsTakeOut": true, "GoodForKids": true, "BusinessParking": {"garage": false, "street": false, "validated": false, "lot": false, "valet": false}}, "categories": ["Pizza", "Restaurants"], "hours": {}}, {"business_id": "HXO83D4b_LzkDQEQIYB_XQ", "name": "Domino's Pizza", "neighborhood": "", "address": "3300A Saw Mill Run Blvd", "city": "Brentwood", "state": "PA", "postal_code": "15227", "latitude": 40.3753450356, "longitude": -79.9836302319, "stars": 2.5, "review_count": 5, "is_open": 1, "attributes": {"RestaurantsTableService": false, "Alcohol": "none", "HasTV": false, "RestaurantsGoodForGroups": true, "NoiseLevel": "quiet", "WiFi": "no", "RestaurantsAttire": "casual", "RestaurantsReservations": true, "OutdoorSeating": false, "BusinessAcceptsCreditCards": true, "RestaurantsPriceRange2": 1, "BikeParking": true, "RestaurantsDelivery": true, "RestaurantsTakeOut": true, "GoodForKids": true, "BusinessParking": {"garage": false, "street": false, "validated": false, "lot": false, "valet": false}}, "categories": ["Sandwiches", "Restaurants", "Chicken Wings", "Pizza"], "hours": {"Monday": "10:30-0:00", "Tuesday": "10:30-0:00", "Friday": "10:30-1:00", "Wednesday": "10:30-0:00", "Thursday": "10:30-0:00", "Sunday": "10:30-0:00", "Saturday": "10:30-1:00"}}, {"business_id": "ScjovI4ZoE8zdIF7LUJEOw", "name": "Peet's Coffee & Tea", "neighborhood": "", "address": "4100 Brownsville Road", "city": "Brentwood", "state": "PA", "postal_code": "15227", "latitude": 40.3660442, "longitude": -79.9818381, "stars": 3.5, "review_count": 3, "is_open": 0, "attributes": {"BusinessAcceptsCreditCards": true, "RestaurantsPriceRange2": 1, "WiFi": "free", "BusinessParking": {"garage": false, "street": true, "validated": false, "lot": false, "valet": false}, "OutdoorSeating": true}, "categories": ["Coffee & Tea", "Food"], "hours": {"Monday": "6:00-20:00", "Tuesday": "6:00-20:00", "Friday": "6:00-21:00", "Wednesday": "6:00-20:00", "Thursday": "6:00-20:00", "Sunday": "7:00-19:00", "Saturday": "7:00-21:00"}}, {"business_id": "G-OMrmKRaSumc73LaSbhPA", "name": "China Wok", "neighborhood": "", "address": "4060 Brownsvile Rd", "city": "Brentwood", "state": "PA", "postal_code": "15227", "latitude": 40.3663847, "longitude": -79.9813751, "stars": 2.5, "review_count": 6, "is_open": 1, "attributes": {"HasTV": false, "GoodForKids": true, "RestaurantsAttire": "casual", "RestaurantsReservations": false, "BusinessAcceptsCreditCards": true, "RestaurantsPriceRange2": 1, "RestaurantsDelivery": true, "RestaurantsTakeOut": true, "RestaurantsGoodForGroups": true}, "categories": ["Chinese", "Restaurants"], "hours": {}}, {"business_id": "vz9BbVWThEyK4O_JFtVo4A", "name": "Dunkin' Donuts", "neighborhood": "", "address": "3200 Clairton Blvd", "city": "Brentwood", "state": "PA", "postal_code": "15227", "latitude": 40.3762803286, "longitude": -79.9841011938, "stars": 2.5, "review_count": 6, "is_open": 1, "attributes": {"BusinessParking": {"garage": false, "street": false, "validated": false, "lot": false, "valet": false}, "WiFi": "free", "OutdoorSeating": false, "BusinessAcceptsCreditCards": true, "RestaurantsPriceRange2": 1, "BikeParking": false, "RestaurantsTakeOut": true}, "categories": ["Coffee & Tea", "Restaurants", "Desserts", "Food", "Donuts", "Breakfast & Brunch"], "hours": {}}]