[{"business_id": "dBtoic8Pr2isipH0O4Nx1w", "name": "The Lemon Grill", "neighborhood": "", "address": "107 N Second Ave", "city": "Elizabeth", "state": "PA", "postal_code": "15037", "latitude": 40.273228, "longitude": -79.886663, "stars": 4.5, "review_count": 3, "is_open": 0, "attributes": {"DogsAllowed": false, "BusinessParking": {"garage": false, "street": true, "validated": false, "lot": false, "valet": false}, "Caters": true, "HasTV": false, "RestaurantsGoodForGroups": true, "WiFi": "free", "RestaurantsAttire": "casual", "RestaurantsReservations": true, "OutdoorSeating": false, "BusinessAcceptsCreditCards": false, "RestaurantsPriceRange2": 2, "BusinessAcceptsBitcoin": false, "BikeParking": false, "RestaurantsDelivery": false, "RestaurantsTakeOut": true, "GoodForKids": true, "WheelchairAccessible": true, "RestaurantsTableService": true}, "categories": ["Greek", "Restaurants"], "hours": {"Tuesday": "11:00-20:00", "Friday": "11:00-20:00", "Wednesday": "11:00-20:00", "Thursday": "11:00-20:00", "Saturday": "13:00-21:00"}}, {"business_id": "6HQDB-FQlloN7p8MHqSveQ", "name": "Top O' The Mornin' Donut & Coffee Shop", "neighborhood": "", "address": "111 S 2nd Ave", "city": "Elizabeth", "state": "PA", "postal_code": "15037", "latitude": 40.2729529748, "longitude": -79.8873626973, "stars": 4.5, "review_count": 11, "is_open": 1, "attributes": {"DogsAllowed": false, "BusinessParking": {"garage": false, "street": true, "validated": false, "lot": false, "valet": false}, "Caters": true, "HasTV": true, "WiFi": "free", "OutdoorSeating": false, "BusinessAcceptsCreditCards": true, "RestaurantsPriceRange2": 1, "RestaurantsTableService": false, "RestaurantsDelivery": true, "RestaurantsTakeOut": true, "WheelchairAccessible": true, "Alcohol": "none"}, "categories": ["Salad", "Donuts", "Restaurants", "Coffee & Tea", "Bakeries", "Sandwiches", "Food", "Breakfast & Brunch"], "hours": {"Monday": "5:00-15:00", "Tuesday": "5:00-13:00", "Friday": "5:00-13:00", "Wednesday": "5:00-13:00", "Thursday": "5:00-13:00", "Saturday": "5:00-12:00"}}, {"business_id": "6PaLW1K478xyePOxUI56vg", "name": "Becky's Place", "neighborhood": "", "address": "605 Scenery Dr", "city": "Elizabeth", "state": "PA", "postal_code": "15037", "latitude": 40.2724392801, "longitude": -79.8378212515, "stars": 4.0, "review_count": 12, "is_open": 1, "attributes": {"GoodForMeal": {"dessert": false, "latenight": false, "lunch": false, "dinner": false, "breakfast": true, "brunch": false}, "Alcohol": "none", "Caters": false, "HasTV": true, "RestaurantsGoodForGroups": true, "NoiseLevel": "average", "RestaurantsAttire": "casual", "RestaurantsReservations": false, "OutdoorSeating": false, "BusinessAcceptsCreditCards": true, "RestaurantsPriceRange2": 1, "RestaurantsTableService": true, "RestaurantsDelivery": false, "Ambience": {"romantic": false, "intimate": false, "classy": false, "hipster": false, "divey": false, "touristy": false, "trendy": false, "upscale": false, "casual": false}, "RestaurantsTakeOut": true, "GoodForKids": true, "BusinessParking": {"garage": false, "street": false, "validated": false, "lot": false, "valet": false}}, "categories": ["American (Traditional)", "Restaurants"], "hours": {"Monday": "7:00-14:00", "Tuesday": "7:00-14:00", "Friday": "7:00-14:00", "Wednesday": "7:00-14:00", "Thursday": "7:00-14:00", "Sunday": "7:00-14:00", "Saturday": "7:00-14:00"}}, {"business_id": "XIvOboURyF-hE3truQjdqQ", "name": "Mama Pepino's Pizza", "neighborhood": "", "address": "210 Plum St", "city": "Elizabeth", "state": "PA", "postal_code": "15037", "latitude": 40.2720047, "longitude": -79.8872344, "stars": 2.5, "review_count": 7, "is_open": 1, "attributes": {}, "categories": ["Restaurants", "Pizza"], "hours": {}}, {"business_id": "HsK8jIl1WapeIld_z1_BDw", "name": "Barton's Flowers & Bake Shop", "neighborhood": "", "address": "311 S 2nd St", "city": "Elizabeth", "state": "PA", "postal_code": "15037", "latitude": 40.2713759, "longitude": -79.8880859, "stars": 5.0, "review_count": 15, "is_open": 1, "attributes": {"DogsAllowed": false, "BusinessParking": {"garage": false, "street": true, "validated": false, "lot": false, "valet": false}, "BusinessAcceptsCreditCards": true, "RestaurantsPriceRange2": 1, "BikeParking": true, "RestaurantsDelivery": true, "RestaurantsTakeOut": true, "WheelchairAccessible": true}, "categories": ["Food", "Shopping", "Wedding Planning", "Bakeries", "Florists", "Cupcakes", "Event Planning & Services", "Custom Cakes", "Party Supplies", "Gift Shops", "Flowers & Gifts"], "hours": {"Monday": "6:00-17:00", "Tuesday": "6:00-17:00", "Friday": "6:00-18:00", "Wednesday": "6:00-17:00", "Thursday": "6:00-17:00", "Saturday": "6:00-16:00"}}, {"business_id": "YlgtEY-SRQZZkPT54Tdbzw", "name": "Wagner's Restaurant", "neighborhood": "", "address": "550 McKeesport Rd", "city": "Elizabeth", "state": "PA", "postal_code": "15037", "latitude": 40.2763037, "longitude": -79.8790424, "stars": 4.0, "review_count": 10, "is_open": 1, "attributes": {"RestaurantsTableService": true, "GoodForMeal": {"dessert": false, "latenight": false, "lunch": false, "dinner": false, "breakfast": false, "brunch": false}, "Alcohol": "none", "HasTV": false, "RestaurantsGoodForGroups": true, "NoiseLevel": "average", "RestaurantsAttire": "casual", "RestaurantsReservations": false, "OutdoorSeating": false, "BusinessAcceptsCreditCards": true, "RestaurantsPriceRange2": 2, "BikeParking": true, "RestaurantsDelivery": false, "Ambience": {"romantic": false, "intimate": false, "classy": false, "hipster": false, "divey": false, "touristy": false, "trendy": false, "upscale": false, "casual": false}, "RestaurantsTakeOut": true, "GoodForKids": true, "BusinessParking": {"garage": false, "street": false, "validated": false, "lot": false, "valet": false}}, "categories": ["Restaurants", "American (Traditional)"], "hours": {"Sunday": "7:00-14:00", "Friday": "6:00-19:00", "Wednesday": "6:00-14:00", "Thursday": "6:00-14:00", "Saturday": "6:00-19:00"}}, {"business_id": "KNpcPGqDORDdvtekXd348w", "name": "Carriage Inn Restaurant and Catering", "neighborhood": "", "address": "1601 Lovedale Rd", "city": "Elizabeth", "state": "PA", "postal_code": "15037", "latitude": 40.285064, "longitude": -79.8423904, "stars": 3.0, "review_count": 14, "is_open": 1, "attributes": {"RestaurantsTableService": true, "GoodForMeal": {"dessert": false, "latenight": false, "lunch": true, "dinner": true, "breakfast": false, "brunch": false}, "Alcohol": "full_bar", "Caters": true, "HasTV": true, "RestaurantsGoodForGroups": true, "NoiseLevel": "average", "WiFi": "free", "RestaurantsAttire": "casual", "RestaurantsReservations": true, "OutdoorSeating": false, "BusinessAcceptsCreditCards": true, "RestaurantsPriceRange2": 2, "BusinessAcceptsBitcoin": false, "BikeParking": true, "RestaurantsDelivery": false, "Ambience": {"romantic": false, "intimate": false, "classy": false, "hipster": false, "divey": false, "touristy": false, "trendy": false, "upscale": false, "casual": true}, "RestaurantsTakeOut": true, "GoodForKids": true, "BusinessParking": {"garage": false, "street": false, "validated": false, "lot": true, "valet": false}}, "categories": ["Bars", "Restaurants", "American (Traditional)", "Nightlife", "Italian", "Caterers", "Event Planning & Services", "Lounges", "Seafood"], "hours": {"Monday": "11:00-23:00", "Tuesday": "11:00-23:00", "Friday": "11:00-23:00", "Wednesday": "11:00-23:00", "Thursday": "11:00-23:00", "Sunday": "8:00-22:00", "Saturday": "8:00-0:00"}}, {"business_id": "EOwo0mutzGlbD1hAZcV3eQ", "name": "R-Place Restaurant", "neighborhood": "", "address": "102 Enterprise St", "city": "Elizabeth", "state": "PA", "postal_code": "15037", "latitude": 40.280033, "longitude": -79.837923, "stars": 4.0, "review_count": 4, "is_open": 1, "attributes": {"RestaurantsAttire": "casual", "RestaurantsGoodForGroups": false, "GoodForKids": false, "RestaurantsTakeOut": true, "RestaurantsDelivery": false}, "categories": ["American (Traditional)", "Restaurants"], "hours": {}}, {"business_id": "wbgxiPnalE791g4RMN_NjA", "name": "The Betsy Shoppe", "neighborhood": "", "address": "1903 Donner St", "city": "Elizabeth", "state": "PA", "postal_code": "15135", "latitude": 40.3104615, "longitude": -79.8273883, "stars": 3.5, "review_count": 3, "is_open": 1, "attributes": {"DogsAllowed": false, "BusinessParking": {"garage": false, "street": false, "validated": false, "lot": true, "valet": false}, "WiFi": "free", "BusinessAcceptsCreditCards": true, "BikeParking": true, "RestaurantsTakeOut": true, "WheelchairAccessible": true}, "categories": ["Shopping", "Flowers & Gifts", "Tea Rooms", "Antiques", "Gift Shops", "Food"], "hours": {"Tuesday": "10:00-18:00", "Friday": "10:00-18:00", "Wednesday": "10:00-18:00", "Thursday": "10:00-18:00", "Sunday": "10:00-16:00", "Saturday": "10:00-16:00"}}, {"business_id": "tT4QuynwNXkXWCLUZx3wEA", "name": "Vagabond Food truck", "neighborhood": "", "address": "", "city": "Elizabeth", "state": "PA", "postal_code": "15037", "latitude": 40.2692367, "longitude": -79.8897706, "stars": 3.0, "review_count": 10, "is_open": 1, "attributes": {"GoodForKids": true, "RestaurantsAttire": "casual", "RestaurantsDelivery": false, "Ambience": {"romantic": false, "intimate": false, "classy": false, "hipster": false, "divey": false, "touristy": false, "trendy": false, "upscale": false, "casual": false}, "RestaurantsTakeOut": true, "RestaurantsGoodForGroups": true}, "categories": ["Food Trucks", "Street Vendors", "Caterers", "Sandwiches", "Food", "Restaurants", "Event Planning & Services"], "hours": {}}, {"business_id": "hOoM1--DNrkTzWJXJxQfEg", "name": "Krum's Creamery", "neighborhood": "", "address": "200 Swiss Way", "city": "Elizabeth", "state": "PA", "postal_code": "15037", "latitude": 40.2805847, "longitude": -79.8355291, "stars": 5.0, "review_count": 4, "is_open": 1, "attributes": {"BusinessParking": {"garage": false, "street": false, "validated": false, "lot": false, "valet": false}, "Caters": true, "WiFi": "no", "BusinessAcceptsCreditCards": true, "RestaurantsPriceRange2": 1, "BikeParking": false, "RestaurantsTakeOut": true}, "categories": ["Food", "Ice Cream & Frozen Yogurt"], "hours": {"Monday": "15:00-21:30", "Tuesday": "15:00-21:30", "Friday": "15:00-21:30", "Wednesday": "15:00-21:30", "Thursday": "15:00-21:30", "Sunday": "12:00-21:30", "Saturday": "12:00-21:30"}}, {"business_id": "dAa0hB2yrnHzVmsCkN4YvQ", "name": "Rock Run Inn", "neighborhood": "", "address": "800 Rock Run Rd", "city": "Elizabeth", "state": "PA", "postal_code": "15037", "latitude": 40.2678354, "longitude": -79.8125871, "stars": 4.5, "review_count": 5, "is_open": 1, "attributes": {"RestaurantsTableService": true, "DogsAllowed": false, "Alcohol": "full_bar", "HasTV": true, "RestaurantsGoodForGroups": true, "NoiseLevel": "average", "WiFi": "free", "RestaurantsAttire": "casual", "RestaurantsReservations": true, "OutdoorSeating": true, "BusinessAcceptsCreditCards": true, "RestaurantsPriceRange2": 2, "BikeParking": true, "RestaurantsDelivery": false, "Ambience": {"romantic": false, "intimate": false, "classy": false, "hipster": false, "divey": false, "touristy": false, "trendy": false, "upscale": false, "casual": false}, "RestaurantsTakeOut": true, "GoodForKids": true, "WheelchairAccessible": true, "BusinessParking": {"garage": false, "street": false, "validated": false, "lot": true, "valet": false}}, "categories": ["Venues & Event Spaces", "American (Traditional)", "Restaurants", "Event Planning & Services"], "hours": {"Monday": "8:00-21:00", "Tuesday": "8:00-21:00", "Friday": "8:00-21:00", "Wednesday": "8:00-21:00", "Thursday": "8:00-21:00", "Sunday": "8:00-20:00", "Saturday": "8:00-20:00"}}, {"business_id": "8n6rB_miqJnUx6fMrweY_Q", "name": "E-Town Pizza", "neighborhood": "", "address": "118 2nd St", "city": "Elizabeth", "state": "PA", "postal_code": "15037", "latitude": 40.273148, "longitude": -79.8860009, "stars": 3.0, "review_count": 4, "is_open": 1, "attributes": {"RestaurantsPriceRange2": 2, "RestaurantsDelivery": true}, "categories": ["Restaurants", "Pizza"], "hours": {}}, {"business_id": "AX64Yw-0pTjKP-33hU-JPw", "name": "Rockwell's Red Lion Restaurant", "neighborhood": "", "address": "201 S 2nd Ave", "city": "Elizabeth", "state": "PA", "postal_code": "15037", "latitude": 40.2720803, "longitude": -79.8874215, "stars": 3.5, "review_count": 22, "is_open": 1, "attributes": {"RestaurantsTableService": true, "GoodForMeal": {"dessert": false, "latenight": false, "lunch": true, "dinner": true, "breakfast": false, "brunch": false}, "Alcohol": "full_bar", "Caters": true, "HasTV": false, "RestaurantsGoodForGroups": true, "NoiseLevel": "average", "WiFi": "free", "RestaurantsAttire": "casual", "RestaurantsReservations": true, "OutdoorSeating": false, "BusinessAcceptsCreditCards": true, "RestaurantsPriceRange2": 2, "BikeParking": false, "RestaurantsDelivery": false, "Ambience": {"romantic": false, "intimate": false, "classy": false, "hipster": false, "divey": false, "touristy": false, "trendy": false, "upscale": false, "casual": true}, "RestaurantsTakeOut": true, "GoodForKids": false, "WheelchairAccessible": true, "BusinessParking": {"garage": false, "street": true, "validated": false, "lot": false, "valet": false}}, "categories": ["Event Planning & Services", "American (New)", "Caterers", "Seafood", "Restaurants"], "hours": {"Monday": "11:00-21:00", "Tuesday": "11:00-21:00", "Friday": "11:00-22:00", "Wednesday": "11:00-21:00", "Thursday": "11:00-21:00", "Saturday": "16:00-22:00"}}, {"business_id": "rqKnO5RtXm4dYPIkAL815A", "name": "Butler's Golf Course", "neighborhood": "", "address": "800 Rock Run Rd", "city": "Elizabeth", "state": "PA", "postal_code": "15037", "latitude": 40.2678354, "longitude": -79.8125871, "stars": 4.5, "review_count": 3, "is_open": 1, "attributes": {"GoodForKids": true}, "categories": ["Restaurants", "Golf", "Active Life"], "hours": {}}, {"business_id": "1V3fj_J0242-2PZJA6NYSg", "name": "Cross Creek Inn", "neighborhood": "", "address": "620 Boston Hollow Rd", "city": "Elizabeth", "state": "PA", "postal_code": "15037", "latitude": 40.2920469, "longitude": -79.8336032, "stars": 2.0, "review_count": 4, "is_open": 1, "attributes": {"Caters": true, "HasTV": true, "RestaurantsGoodForGroups": false, "RestaurantsAttire": "casual", "RestaurantsReservations": true, "OutdoorSeating": false, "BusinessAcceptsCreditCards": true, "RestaurantsPriceRange2": 4, "RestaurantsDelivery": false, "Ambience": {"romantic": false, "intimate": false, "classy": false, "hipster": false, "divey": false, "touristy": false, "trendy": false, "upscale": false, "casual": false}, "RestaurantsTakeOut": true, "GoodForKids": true, "HappyHour": false}, "categories": ["Bars", "Nightlife", "Barbeque", "Sandwiches", "Restaurants"], "hours": {"Monday": "11:00-2:00", "Tuesday": "15:00-2:00", "Friday": "11:00-2:00", "Wednesday": "15:00-2:00", "Thursday": "15:00-2:00", "Sunday": "11:00-2:00", "Saturday": "11:00-2:00"}}, {"business_id": "XBVp2d7UVJRxc70QcjvKIA", "name": "China Fortune", "neighborhood": "", "address": "400 Swiss Way", "city": "Elizabeth", "state": "PA", "postal_code": "15037", "latitude": 40.2805655, "longitude": -79.8353473, "stars": 3.0, "review_count": 6, "is_open": 1, "attributes": {"Alcohol": "none", "Caters": false, "HasTV": false, "RestaurantsGoodForGroups": false, "NoiseLevel": "quiet", "WiFi": "no", "RestaurantsAttire": "casual", "RestaurantsReservations": false, "OutdoorSeating": false, "BusinessAcceptsCreditCards": true, "RestaurantsPriceRange2": 1, "BikeParking": true, "RestaurantsDelivery": false, "Ambience": {"romantic": false, "intimate": false, "classy": false, "hipster": false, "divey": false, "touristy": false, "trendy": false, "upscale": false, "casual": false}, "RestaurantsTakeOut": true, "GoodForKids": true, "BusinessParking": {"garage": false, "street": false, "validated": false, "lot": false, "valet": false}}, "categories": ["Restaurants", "Chinese"], "hours": {}}, {"business_id": "KXv9wm5W9LTNZec2AsmHgQ", "name": "Grand Central Pizza", "neighborhood": "", "address": "601 Scenery Dr", "city": "Elizabeth", "state": "PA", "postal_code": "15037", "latitude": 40.2723899, "longitude": -79.8375731, "stars": 4.0, "review_count": 10, "is_open": 1, "attributes": {"RestaurantsTableService": false, "GoodForMeal": {"dessert": false, "latenight": false, "lunch": false, "dinner": false, "breakfast": false, "brunch": false}, "Alcohol": "none", "Caters": false, "HasTV": true, "RestaurantsGoodForGroups": true, "NoiseLevel": "quiet", "WiFi": "no", "RestaurantsAttire": "casual", "RestaurantsReservations": false, "OutdoorSeating": false, "BusinessAcceptsCreditCards": true, "RestaurantsPriceRange2": 1, "BikeParking": true, "RestaurantsDelivery": true, "Ambience": {"romantic": false, "intimate": false, "classy": false, "hipster": false, "divey": false, "touristy": false, "trendy": false, "upscale": false, "casual": false}, "RestaurantsTakeOut": true, "GoodForKids": true, "BusinessParking": {"garage": false, "street": false, "validated": false, "lot": false, "valet": false}}, "categories": ["Pizza", "Local Services", "Restaurants", "Printing Services"], "hours": {"Monday": "11:00-22:00", "Tuesday": "11:00-22:00", "Friday": "11:00-23:00", "Wednesday": "11:00-22:00", "Thursday": "11:00-22:00", "Sunday": "11:00-22:00", "Saturday": "11:00-23:00"}}, {"business_id": "HnYIhqta4432AsqGBcSlfg", "name": "Rib Crib", "neighborhood": "", "address": "504 Park Ave", "city": "Elizabeth", "state": "PA", "postal_code": "15037", "latitude": 40.272293, "longitude": -79.872271, "stars": 3.5, "review_count": 5, "is_open": 1, "attributes": {"GoodForMeal": {"dessert": false, "latenight": false, "lunch": false, "dinner": false, "breakfast": false, "brunch": false}, "Alcohol": "full_bar", "HasTV": true, "RestaurantsGoodForGroups": false, "NoiseLevel": "average", "WiFi": "no", "RestaurantsAttire": "casual", "RestaurantsReservations": false, "OutdoorSeating": false, "BusinessAcceptsCreditCards": true, "RestaurantsPriceRange2": 2, "RestaurantsTableService": true, "RestaurantsDelivery": false, "Ambience": {"romantic": false, "intimate": false, "classy": false, "hipster": false, "divey": false, "touristy": false, "trendy": false, "upscale": false, "casual": false}, "RestaurantsTakeOut": true, "GoodForKids": false, "BusinessParking": {"garage": false, "street": false, "validated": false, "lot": false, "valet": false}}, "categories": ["Restaurants"], "hours": {}}, {"business_id": "KIlGZ7hS7X26YvuzzCT5Yg", "name": "Frosty Cone", "neighborhood": "", "address": "740 Glassport Elizabeth Rd", "city": "Elizabeth", "state": "PA", "postal_code": "15037", "latitude": 40.2786262, "longitude": -79.8760198, "stars": 3.5, "review_count": 3, "is_open": 1, "attributes": {"BusinessParking": {"garage": false, "street": false, "validated": false, "lot": true, "valet": false}, "WiFi": "no", "BusinessAcceptsCreditCards": false, "RestaurantsPriceRange2": 1, "BikeParking": true, "WheelchairAccessible": true}, "categories": ["Food", "Ice Cream & Frozen Yogurt"], "hours": {"Monday": "11:00-22:00", "Tuesday": "11:00-22:00", "Friday": "11:00-22:00", "Wednesday": "11:00-22:00", "Thursday": "11:00-22:00", "Sunday": "11:00-22:00", "Saturday": "11:00-22:00"}}, {"business_id": "U-uSDDlyIoz6MvV72DroKw", "name": "Decarlo's Fruit Market", "neighborhood": "", "address": "560 Mckessport Rd", "city": "Elizabeth", "state": "PA", "postal_code": "15037", "latitude": 40.2763273, "longitude": -79.8783825, "stars": 5.0, "review_count": 4, "is_open": 1, "attributes": {"BusinessAcceptsCreditCards": true, "RestaurantsPriceRange2": 2, "BusinessParking": {"garage": false, "street": false, "validated": false, "lot": true, "valet": false}, "BikeParking": false, "WheelchairAccessible": false}, "categories": ["Specialty Food", "Food", "Grocery", "Fruits & Veggies"], "hours": {"Monday": "8:00-18:00", "Tuesday": "8:00-18:00", "Friday": "8:00-18:00", "Wednesday": "8:00-18:00", "Thursday": "8:00-18:00", "Saturday": "8:00-17:00"}}]