[{"business_id": "lwOuoY4YW1j9zl0RWIIP4A", "name": "Grape & Barley", "neighborhood": "", "address": "1933 Hoffman Rd, Ste 4", "city": "Gastonia", "state": "NC", "postal_code": "28054", "latitude": 35.2254112, "longitude": -81.1337295, "stars": 4.5, "review_count": 14, "is_open": 1, "attributes": {"BusinessParking": {"garage": false, "street": false, "validated": false, "lot": false, "valet": false}, "HasTV": true, "CoatCheck": false, "NoiseLevel": "average", "OutdoorSeating": true, "BusinessAcceptsCreditCards": true, "RestaurantsPriceRange2": 2, "Music": {"dj": false, "background_music": false, "no_music": false, "karaoke": false, "live": false, "video": false, "jukebox": false}, "RestaurantsReservations": false, "BikeParking": true, "Ambience": {"romantic": false, "intimate": false, "classy": false, "hipster": false, "divey": false, "touristy": false, "trendy": false, "upscale": false, "casual": true}, "BestNights": {"monday": false, "tuesday": false, "friday": false, "wednesday": false, "thursday": false, "sunday": false, "saturday": false}, "RestaurantsGoodForGroups": true, "HappyHour": true, "GoodForDancing": false, "Alcohol": "beer_and_wine"}, "categories": ["Food", "Beer", "Wine & Spirits", "Nightlife", "Bars", "Bars"], "hours": {"Monday": "10:00-21:00", "Tuesday": "10:00-21:00", "Friday": "10:00-21:00", "Wednesday": "10:00-21:00", "Thursday": "10:00-21:00", "Saturday": "10:00-21:00"}}, {"business_id": "_XAaKm6lN5aQnPUWTmjonw", "name": "Pizza Hut", "neighborhood": "", "address": "2521 E Ozark Ave", "city": "Gastonia", "state": "NC", "postal_code": "28054", "latitude": 35.2792337, "longitude": -81.1404833, "stars": 1.5, "review_count": 3, "is_open": 1, "attributes": {"Caters": false, "RestaurantsReservations": false, "BusinessAcceptsCreditCards": true, "RestaurantsDelivery": true, "RestaurantsTakeOut": true, "WheelchairAccessible": false}, "categories": ["Pizza", "Restaurants", "Italian", "American (New)"], "hours": {}}, {"business_id": "ddEDgarAoRJ_ANMvTuRkzw", "name": "Taco Bell", "neighborhood": "", "address": "1110 E. Hudson Blvd.", "city": "Gastonia", "state": "NC", "postal_code": "28054", "latitude": 35.23256, "longitude": -81.169418, "stars": 1.5, "review_count": 6, "is_open": 1, "attributes": {"BusinessAcceptsCreditCards": false, "GoodForKids": true, "RestaurantsTakeOut": false, "RestaurantsReservations": false, "RestaurantsDelivery": false}, "categories": ["Fast Food", "Tex-Mex", "Restaurants", "Mexican"], "hours": {"Monday": "7:00-0:00", "Tuesday": "7:00-0:00", "Friday": "7:00-1:00", "Wednesday": "7:00-0:00", "Thursday": "7:00-0:00", "Sunday": "7:00-0:00", "Saturday": "7:00-1:00"}}, {"business_id": "nNroLnN_dD5qc8hKJE-_Ag", "name": "China Gourmet", "neighborhood": "", "address": "2211 N New Hope Rd", "city": "Gastonia", "state": "NC", "postal_code": "28054", "latitude": 35.298046, "longitude": -81.160658, "stars": 4.5, "review_count": 11, "is_open": 1, "attributes": {"GoodForMeal": {"dessert": false, "latenight": false, "lunch": false, "dinner": false, "breakfast": false, "brunch": false}, "Alcohol": "none", "HasTV": false, "RestaurantsGoodForGroups": true, "NoiseLevel": "quiet", "RestaurantsAttire": "casual", "RestaurantsReservations": false, "OutdoorSeating": false, "BusinessAcceptsCreditCards": true, "RestaurantsPriceRange2": 2, "BikeParking": false, "RestaurantsDelivery": false, "Ambience": {"romantic": false, "intimate": false, "classy": false, "hipster": false, "divey": false, "touristy": false, "trendy": false, "upscale": false, "casual": false}, "RestaurantsTakeOut": true, "GoodForKids": true}, "categories": ["Chinese", "Restaurants"], "hours": {}}, {"business_id": "dyZvfVtD_5voybaxnPPXhQ", "name": "Pizza Hut", "neighborhood": "", "address": "832 S Chester St", "city": "Gastonia", "state": "NC", "postal_code": "28052", "latitude": 35.2513641, "longitude": -81.1898939, "stars": 2.5, "review_count": 3, "is_open": 1, "attributes": {"BusinessAcceptsCreditCards": true, "RestaurantsGoodForGroups": true, "RestaurantsTakeOut": true, "RestaurantsReservations": false, "RestaurantsDelivery": true}, "categories": ["Italian", "American (New)", "Restaurants", "Pizza"], "hours": {}}, {"business_id": "Sto6KnOIvZAhSbLg5sZBKg", "name": "Jersey Mike's Subs", "neighborhood": "", "address": "3754 East Franklin Blvd", "city": "Gastonia", "state": "NC", "postal_code": "28054", "latitude": 35.2574768, "longitude": -81.1131229, "stars": 4.0, "review_count": 8, "is_open": 1, "attributes": {"GoodForMeal": {"dessert": false, "latenight": false, "lunch": false, "dinner": false, "breakfast": false, "brunch": false}, "HasTV": true, "RestaurantsGoodForGroups": true, "RestaurantsAttire": "casual", "RestaurantsReservations": false, "OutdoorSeating": false, "BusinessAcceptsCreditCards": true, "RestaurantsPriceRange2": 1, "RestaurantsDelivery": false, "Ambience": {"romantic": false, "intimate": false, "classy": false, "hipster": false, "divey": false, "touristy": false, "trendy": false, "upscale": false, "casual": false}, "RestaurantsTakeOut": true, "GoodForKids": true, "DriveThru": false}, "categories": ["Fast Food", "Restaurants", "Delis", "Fast Food"], "hours": {}}, {"business_id": "gm0BzFmjonr-Vsrtt-Zkmw", "name": "Bojangles' Famous Chicken 'n Biscuits", "neighborhood": "", "address": "507 N New Hope Rd", "city": "Gastonia", "state": "NC", "postal_code": "28054", "latitude": 35.2710021, "longitude": -81.1497307, "stars": 2.5, "review_count": 13, "is_open": 1, "attributes": {"GoodForMeal": {"dessert": false, "latenight": false, "lunch": false, "dinner": false, "breakfast": false, "brunch": false}, "Alcohol": "none", "HasTV": false, "RestaurantsGoodForGroups": true, "WiFi": "no", "RestaurantsAttire": "casual", "RestaurantsReservations": false, "OutdoorSeating": false, "BusinessAcceptsCreditCards": true, "RestaurantsPriceRange2": 1, "BikeParking": false, "RestaurantsDelivery": false, "Ambience": {"romantic": false, "intimate": false, "classy": false, "hipster": false, "divey": false, "touristy": false, "trendy": false, "upscale": false, "casual": false}, "RestaurantsTakeOut": true, "GoodForKids": true, "DriveThru": true}, "categories": ["Chicken Shop", "Breakfast & Brunch", "Restaurants", "Fast Food", "Southern"], "hours": {"Monday": "5:00-23:00", "Tuesday": "5:00-23:00", "Friday": "5:00-23:00", "Wednesday": "5:00-23:00", "Thursday": "5:00-23:00", "Sunday": "6:00-23:00", "Saturday": "5:00-23:00"}}, {"business_id": "9vaPzTRUntT144Rnsxb2nQ", "name": "QDOBA Mexican Eats", "neighborhood": "", "address": "401 Cox Rd, Ste 182", "city": "Gastonia", "state": "NC", "postal_code": "28054", "latitude": 35.2636773999, "longitude": -81.13501288, "stars": 3.0, "review_count": 9, "is_open": 1, "attributes": {"RestaurantsTableService": false, "GoodForMeal": {"dessert": false, "latenight": false, "lunch": true, "dinner": false, "breakfast": false, "brunch": false}, "Alcohol": "beer_and_wine", "Caters": false, "HasTV": true, "RestaurantsGoodForGroups": true, "NoiseLevel": "average", "WiFi": "free", "RestaurantsAttire": "casual", "RestaurantsReservations": false, "OutdoorSeating": true, "BusinessAcceptsCreditCards": true, "RestaurantsPriceRange2": 2, "BikeParking": true, "RestaurantsDelivery": false, "Ambience": {"romantic": false, "intimate": false, "classy": false, "hipster": false, "divey": false, "touristy": false, "trendy": false, "upscale": false, "casual": false}, "RestaurantsTakeOut": true, "GoodForKids": true, "DriveThru": false, "BusinessParking": {"garage": false, "street": false, "validated": false, "lot": false, "valet": false}}, "categories": ["Fast Food", "Event Planning & Services", "Mexican", "Restaurants", "Caterers"], "hours": {"Monday": "11:00-22:00", "Tuesday": "11:00-22:00", "Friday": "11:00-22:00", "Wednesday": "11:00-22:00", "Thursday": "11:00-22:00", "Sunday": "11:00-22:00", "Saturday": "11:00-22:00"}}, {"business_id": "5Novl6V4g5TV4ATFPElsYQ", "name": "Firehouse Subs", "neighborhood": "", "address": "2290 E Franklin Blvd, Ste 100", "city": "Gastonia", "state": "NC", "postal_code": "28054", "latitude": 35.261741, "longitude": -81.1393375, "stars": 3.0, "review_count": 15, "is_open": 1, "attributes": {"GoodForMeal": {"dessert": false, "latenight": false, "lunch": false, "dinner": false, "breakfast": false, "brunch": false}, "RestaurantsTableService": false, "HasTV": true, "RestaurantsGoodForGroups": true, "NoiseLevel": "average", "RestaurantsAttire": "casual", "RestaurantsReservations": false, "OutdoorSeating": true, "BusinessAcceptsCreditCards": true, "RestaurantsPriceRange2": 1, "BikeParking": true, "RestaurantsDelivery": false, "Ambience": {"romantic": false, "intimate": false, "classy": false, "hipster": false, "divey": false, "touristy": false, "trendy": false, "upscale": false, "casual": false}, "RestaurantsTakeOut": true, "GoodForKids": true, "DriveThru": false}, "categories": ["Fast Food", "Restaurants", "Delis", "Fast Food", "Fast Food"], "hours": {"Monday": "10:30-21:00", "Tuesday": "10:30-21:00", "Friday": "10:30-22:00", "Wednesday": "10:30-21:00", "Thursday": "10:30-21:00", "Sunday": "10:30-21:00", "Saturday": "10:30-22:00"}}, {"business_id": "SVYUClB4UJ4dTnQO_AXWAg", "name": "Cook Out", "neighborhood": "", "address": "2113 Union Rd", "city": "Gastonia", "state": "NC", "postal_code": "28054", "latitude": 35.2331539405, "longitude": -81.1716891085, "stars": 1.5, "review_count": 4, "is_open": 1, "attributes": {"GoodForKids": false, "RestaurantsReservations": false, "BusinessAcceptsCreditCards": true, "RestaurantsDelivery": false, "RestaurantsTakeOut": true, "RestaurantsGoodForGroups": false}, "categories": ["Fast Food", "Hot Dogs", "Restaurants", "Fast Food"], "hours": {"Monday": "10:30-2:00", "Tuesday": "10:30-2:00", "Friday": "10:30-3:30", "Wednesday": "10:30-2:00", "Thursday": "10:30-2:00", "Sunday": "10:30-2:00", "Saturday": "10:30-3:30"}}, {"business_id": "VjosGv-Ut9Pub0eXTVGvWQ", "name": "Los Arcos Mexican Restaurant", "neighborhood": "", "address": "1403 E Franklin Blvd", "city": "Gastonia", "state": "NC", "postal_code": "28054", "latitude": 35.2616484, "longitude": -81.1557886, "stars": 3.0, "review_count": 24, "is_open": 1, "attributes": {"RestaurantsTableService": true, "GoodForMeal": {"dessert": false, "latenight": false, "lunch": false, "dinner": false, "breakfast": false, "brunch": false}, "Alcohol": "full_bar", "Caters": false, "HasTV": true, "RestaurantsGoodForGroups": true, "NoiseLevel": "average", "WiFi": "free", "RestaurantsAttire": "casual", "RestaurantsReservations": false, "OutdoorSeating": true, "BusinessAcceptsCreditCards": true, "RestaurantsPriceRange2": 2, "BikeParking": true, "RestaurantsDelivery": false, "Ambience": {"romantic": false, "intimate": false, "classy": false, "hipster": false, "divey": false, "touristy": false, "trendy": false, "upscale": false, "casual": true}, "RestaurantsTakeOut": true, "GoodForKids": true, "WheelchairAccessible": true, "BusinessParking": {"garage": false, "street": false, "validated": false, "lot": false, "valet": false}}, "categories": ["Mexican", "Restaurants"], "hours": {}}, {"business_id": "z_rVJjsUZ8yKvSvPLrGkzA", "name": "Domino's Pizza", "neighborhood": "", "address": "1802 S New Hope Rd", "city": "Gastonia", "state": "NC", "postal_code": "28054", "latitude": 35.2433629, "longitude": -81.1349294, "stars": 1.0, "review_count": 5, "is_open": 1, "attributes": {"Caters": true, "RestaurantsAttire": "casual", "RestaurantsReservations": false, "BusinessAcceptsCreditCards": true, "RestaurantsDelivery": true, "RestaurantsTakeOut": true, "WheelchairAccessible": false}, "categories": ["Fast Food", "Pizza", "Restaurants", "American (New)"], "hours": {"Monday": "10:30-0:00", "Tuesday": "10:30-0:00", "Friday": "10:30-1:00", "Wednesday": "10:30-0:00", "Thursday": "10:30-0:00", "Sunday": "10:30-0:00", "Saturday": "10:30-1:00"}}, {"business_id": "ZV-Gbjp8szzzWaimHrwa0w", "name": "Southern Flavor", "neighborhood": "", "address": "246 N New Hope Rd Level 2 Food Ct", "city": "Gastonia", "state": "NC", "postal_code": "28054", "latitude": 35.264769, "longitude": -81.1504467, "stars": 4.5, "review_count": 8, "is_open": 1, "attributes": {"RestaurantsTableService": false, "GoodForMeal": {"dessert": false, "latenight": false, "lunch": false, "dinner": false, "breakfast": false, "brunch": false}, "Alcohol": "none", "HasTV": false, "RestaurantsGoodForGroups": true, "NoiseLevel": "quiet", "RestaurantsAttire": "casual", "RestaurantsReservations": false, "OutdoorSeating": false, "RestaurantsPriceRange2": 1, "BikeParking": true, "RestaurantsDelivery": false, "Ambience": {"romantic": false, "intimate": false, "classy": false, "hipster": false, "divey": false, "touristy": false, "trendy": false, "upscale": false, "casual": false}, "RestaurantsTakeOut": true, "GoodForKids": true, "BusinessParking": {"garage": false, "street": false, "validated": false, "lot": false, "valet": false}}, "categories": ["American (Traditional)", "Southern", "Soul Food", "Restaurants"], "hours": {"Monday": "10:00-20:00", "Tuesday": "10:00-20:00", "Friday": "10:00-21:00", "Wednesday": "10:00-20:00", "Thursday": "10:00-20:00", "Sunday": "12:00-18:00", "Saturday": "10:00-21:00"}}, {"business_id": "BZtNKLg1S9k8s6fYkR1quQ", "name": "Bakery Restaurant Las Palmas", "neighborhood": "", "address": "2688 S New Hope Rd", "city": "Gastonia", "state": "NC", "postal_code": "28056", "latitude": 35.2403689, "longitude": -81.1207631, "stars": 4.0, "review_count": 11, "is_open": 1, "attributes": {"RestaurantsTableService": true, "GoodForMeal": {"dessert": false, "latenight": false, "lunch": true, "dinner": false, "breakfast": false, "brunch": false}, "Alcohol": "none", "HasTV": true, "RestaurantsGoodForGroups": true, "NoiseLevel": "average", "WiFi": "no", "RestaurantsAttire": "casual", "RestaurantsReservations": false, "OutdoorSeating": false, "BusinessAcceptsCreditCards": true, "RestaurantsPriceRange2": 2, "BikeParking": true, "RestaurantsDelivery": false, "Ambience": {"romantic": false, "intimate": false, "classy": false, "hipster": false, "divey": false, "touristy": false, "trendy": false, "upscale": false, "casual": false}, "RestaurantsTakeOut": true, "GoodForKids": true, "BusinessParking": {"garage": false, "street": false, "validated": false, "lot": false, "valet": false}}, "categories": ["Bakeries", "Restaurants", "Latin American", "Food", "Mexican"], "hours": {}}, {"business_id": "TADEJNPtxtN2kIsVWmzcIg", "name": "Burger King", "neighborhood": "", "address": "1911 W Franklin Blvd", "city": "Gastonia", "state": "NC", "postal_code": "28052", "latitude": 35.2592, "longitude": -81.216154, "stars": 1.5, "review_count": 7, "is_open": 1, "attributes": {"RestaurantsTableService": false, "HasTV": false, "RestaurantsGoodForGroups": true, "NoiseLevel": "average", "WiFi": "no", "RestaurantsAttire": "casual", "RestaurantsReservations": false, "OutdoorSeating": false, "BusinessAcceptsCreditCards": true, "RestaurantsPriceRange2": 2, "BikeParking": false, "RestaurantsDelivery": true, "RestaurantsTakeOut": true, "GoodForKids": true}, "categories": ["Fast Food", "Restaurants", "Fast Food"], "hours": {}}, {"business_id": "zuHsZNnCc_fITIrJWmHzcA", "name": "Great Wall", "neighborhood": "", "address": "2567 W Franklin Blvd", "city": "Gastonia", "state": "NC", "postal_code": "28052", "latitude": 35.2572014, "longitude": -81.2283076, "stars": 2.0, "review_count": 7, "is_open": 1, "attributes": {"GoodForKids": true, "WiFi": "no", "RestaurantsReservations": false, "BusinessAcceptsCreditCards": true, "RestaurantsPriceRange2": 1, "RestaurantsDelivery": false, "RestaurantsTakeOut": true, "RestaurantsGoodForGroups": true}, "categories": ["Chinese", "Restaurants"], "hours": {}}, {"business_id": "i3JfZmMPX3cnaLJsszoetg", "name": "Cracker Barrel Old Country Store", "neighborhood": "", "address": "1821 Remount Rd", "city": "Gastonia", "state": "NC", "postal_code": "28054", "latitude": 35.2691841, "longitude": -81.1474341, "stars": 3.5, "review_count": 28, "is_open": 1, "attributes": {"RestaurantsTableService": true, "GoodForMeal": {"dessert": false, "latenight": false, "lunch": true, "dinner": false, "breakfast": true, "brunch": true}, "Alcohol": "none", "Caters": false, "HasTV": false, "RestaurantsGoodForGroups": true, "NoiseLevel": "average", "WiFi": "no", "RestaurantsAttire": "casual", "RestaurantsReservations": false, "OutdoorSeating": false, "BusinessAcceptsCreditCards": true, "RestaurantsPriceRange2": 1, "BikeParking": false, "RestaurantsDelivery": false, "Ambience": {"romantic": false, "intimate": false, "classy": false, "hipster": false, "divey": false, "touristy": false, "trendy": false, "upscale": false, "casual": true}, "RestaurantsTakeOut": true, "GoodForKids": true, "DriveThru": false, "BusinessParking": {"garage": false, "street": false, "validated": false, "lot": true, "valet": false}}, "categories": ["Restaurants", "Breakfast & Brunch", "Fast Food", "American (Traditional)", "Diners", "Southern", "Fast Food"], "hours": {"Monday": "6:00-22:00", "Tuesday": "6:00-22:00", "Friday": "6:00-23:00", "Wednesday": "6:00-22:00", "Thursday": "6:00-22:00", "Sunday": "6:00-22:00", "Saturday": "6:00-23:00"}}, {"business_id": "aj0DdrjiVvWxVDZodgRTfQ", "name": "Taqueria El Pirul", "neighborhood": "", "address": "316 E Franklin Blvd", "city": "Gastonia", "state": "NC", "postal_code": "28054", "latitude": 35.262552, "longitude": -81.1769149, "stars": 4.5, "review_count": 10, "is_open": 1, "attributes": {"RestaurantsTableService": false, "GoodForMeal": {"dessert": false, "latenight": false, "lunch": false, "dinner": false, "breakfast": false, "brunch": false}, "Alcohol": "beer_and_wine", "HasTV": true, "RestaurantsGoodForGroups": true, "NoiseLevel": "average", "RestaurantsAttire": "casual", "RestaurantsReservations": false, "OutdoorSeating": false, "BusinessAcceptsCreditCards": true, "RestaurantsPriceRange2": 1, "BikeParking": false, "RestaurantsDelivery": false, "Ambience": {"romantic": false, "intimate": false, "classy": false, "hipster": false, "divey": false, "touristy": false, "trendy": false, "upscale": false, "casual": false}, "RestaurantsTakeOut": true, "GoodForKids": true, "BusinessParking": {"garage": false, "street": false, "validated": false, "lot": false, "valet": false}}, "categories": ["Mexican", "Restaurants"], "hours": {"Monday": "10:00-20:00", "Tuesday": "10:00-20:00", "Friday": "10:00-21:00", "Thursday": "10:00-21:00", "Sunday": "9:00-20:00", "Saturday": "9:00-21:00"}}, {"business_id": "U_sZ5xC0GT78krjPyYLOPw", "name": "Tijuana Flats", "neighborhood": "", "address": "2272 E Franklin Blvd", "city": "Gastonia", "state": "NC", "postal_code": "28054", "latitude": 35.2626674, "longitude": -81.1388271, "stars": 3.5, "review_count": 26, "is_open": 1, "attributes": {"GoodForMeal": {"dessert": false, "latenight": false, "lunch": true, "dinner": false, "breakfast": false, "brunch": false}, "Alcohol": "beer_and_wine", "Caters": true, "HasTV": true, "RestaurantsGoodForGroups": true, "NoiseLevel": "average", "WiFi": "no", "RestaurantsAttire": "casual", "RestaurantsReservations": false, "OutdoorSeating": true, "BusinessAcceptsCreditCards": true, "RestaurantsPriceRange2": 1, "BikeParking": true, "RestaurantsTableService": true, "RestaurantsDelivery": false, "Ambience": {"romantic": false, "intimate": false, "classy": false, "hipster": false, "divey": false, "touristy": false, "trendy": false, "upscale": false, "casual": true}, "RestaurantsTakeOut": true, "GoodForKids": true, "BusinessParking": {"garage": false, "street": false, "validated": false, "lot": true, "valet": false}}, "categories": ["Restaurants", "Mexican", "Tex-Mex"], "hours": {"Monday": "11:00-21:00", "Tuesday": "11:00-21:00", "Friday": "11:00-21:00", "Wednesday": "11:00-21:00", "Thursday": "11:00-21:00", "Sunday": "11:00-21:00", "Saturday": "11:00-21:00"}}, {"business_id": "e0dv9aRZL9m1EhMwAmKNNg", "name": "Sonic Drive In", "neighborhood": "", "address": "2525 S New Hope Rd", "city": "Gastonia", "state": "NC", "postal_code": "28056", "latitude": 35.2408672, "longitude": -81.1224357, "stars": 2.0, "review_count": 9, "is_open": 1, "attributes": {"GoodForMeal": {"dessert": false, "latenight": false, "lunch": false, "dinner": false, "breakfast": false, "brunch": false}, "Caters": false, "RestaurantsGoodForGroups": true, "RestaurantsAttire": "casual", "RestaurantsReservations": false, "OutdoorSeating": true, "BusinessAcceptsCreditCards": true, "RestaurantsPriceRange2": 1, "RestaurantsDelivery": false, "RestaurantsTakeOut": true, "GoodForKids": true, "WheelchairAccessible": false}, "categories": ["Restaurants", "Fast Food"], "hours": {}}, {"business_id": "F2b2dbqxq4jD8vx3R9k2fQ", "name": "Krispy Kreme Doughnut", "neighborhood": "", "address": "2990 E Franklin Blvd", "city": "Gastonia", "state": "NC", "postal_code": "28056", "latitude": 35.2597942, "longitude": -81.1257552, "stars": 2.5, "review_count": 13, "is_open": 1, "attributes": {"BusinessParking": {"garage": false, "street": false, "validated": false, "lot": false, "valet": false}, "Caters": true, "BusinessAcceptsCreditCards": true, "RestaurantsPriceRange2": 1, "BikeParking": false, "RestaurantsTakeOut": true}, "categories": ["Breakfast", "Food"], "hours": {}}, {"business_id": "3flgcuZ-3KZWOPayS0SeKQ", "name": "Panera Bread", "neighborhood": "", "address": "2625 E Franklin Blvd", "city": "Gastonia", "state": "NC", "postal_code": "28056", "latitude": 35.260104, "longitude": -81.132372, "stars": 2.5, "review_count": 28, "is_open": 1, "attributes": {"RestaurantsTableService": false, "GoodForMeal": {"dessert": false, "latenight": false, "lunch": true, "dinner": false, "breakfast": true, "brunch": false}, "Alcohol": "none", "Caters": true, "HasTV": false, "RestaurantsGoodForGroups": true, "NoiseLevel": "average", "WiFi": "free", "RestaurantsAttire": "casual", "RestaurantsReservations": false, "OutdoorSeating": true, "BusinessAcceptsCreditCards": true, "RestaurantsPriceRange2": 2, "BikeParking": false, "RestaurantsDelivery": true, "Ambience": {"romantic": false, "intimate": false, "classy": false, "hipster": false, "divey": false, "touristy": false, "trendy": false, "upscale": false, "casual": true}, "RestaurantsTakeOut": true, "GoodForKids": true, "BusinessParking": {"garage": false, "street": false, "validated": false, "lot": true, "valet": false}}, "categories": ["Food", "Breakfast & Brunch", "Fast Food", "Breakfast", "Soup", "Restaurants", "Fast Food"], "hours": {"Monday": "6:00-22:00", "Tuesday": "6:00-22:00", "Friday": "6:00-22:00", "Wednesday": "6:00-22:00", "Thursday": "6:00-22:00", "Sunday": "7:00-22:00", "Saturday": "6:00-22:00"}}, {"business_id": "AYjoB5yF6q6lfGZ_gFXT5A", "name": "Hooters", "neighborhood": "", "address": "3725 E Franklin Blvd", "city": "Gastonia", "state": "NC", "postal_code": "28054", "latitude": 35.2569384, "longitude": -81.1133964, "stars": 1.5, "review_count": 11, "is_open": 1, "attributes": {"Alcohol": "full_bar", "HasTV": true, "NoiseLevel": "loud", "RestaurantsAttire": "casual", "WheelchairAccessible": true, "BusinessAcceptsCreditCards": true, "Music": {"dj": false, "background_music": false, "no_music": false, "karaoke": false, "live": false, "video": false, "jukebox": false}, "Ambience": {"romantic": false, "intimate": false, "classy": false, "hipster": false, "divey": false, "touristy": false, "trendy": false, "upscale": false, "casual": false}, "RestaurantsGoodForGroups": true, "WiFi": "no", "RestaurantsReservations": false, "RestaurantsTableService": true, "Smoking": "outdoor", "GoodForKids": false, "HappyHour": true, "GoodForDancing": false, "BikeParking": false, "OutdoorSeating": true, "RestaurantsPriceRange2": 2, "RestaurantsDelivery": false, "GoodForMeal": {"dessert": false, "latenight": false, "lunch": false, "dinner": false, "breakfast": false, "brunch": false}, "BusinessParking": {"garage": false, "street": false, "validated": false, "lot": false, "valet": false}, "CoatCheck": false, "RestaurantsTakeOut": true}, "categories": ["American (New)", "Sports Bars", "Bars", "American (Traditional)", "Nightlife", "Restaurants"], "hours": {"Monday": "11:00-0:00", "Tuesday": "11:00-0:00", "Friday": "11:00-1:00", "Wednesday": "11:00-0:00", "Thursday": "11:00-0:00", "Sunday": "12:00-23:00", "Saturday": "11:00-1:00"}}, {"business_id": "GhtU72F7z39RFOfpeoqVRQ", "name": "El Fog\u00f3n Dominican Restaurant", "neighborhood": "", "address": "209 S Chestnut St", "city": "Gastonia", "state": "NC", "postal_code": "28054", "latitude": 35.2613685105, "longitude": -81.1703234911, "stars": 2.5, "review_count": 10, "is_open": 1, "attributes": {"NoiseLevel": "very_loud", "RestaurantsReservations": false, "BusinessAcceptsCreditCards": true, "RestaurantsPriceRange2": 3, "RestaurantsDelivery": false, "Ambience": {"romantic": false, "intimate": false, "classy": false, "hipster": false, "divey": false, "touristy": false, "trendy": false, "upscale": false, "casual": false}, "RestaurantsTakeOut": true}, "categories": ["Nightlife", "Ethnic Food", "Specialty Food", "Bars", "Bars", "Dominican", "Restaurants", "Food", "Caribbean"], "hours": {}}, {"business_id": "7BDKm07Wqq85S4RPLKH5gg", "name": "Ole Carolina Barbeque", "neighborhood": "", "address": "1011 Union Rd", "city": "Gastonia", "state": "NC", "postal_code": "28054", "latitude": 35.2498247, "longitude": -81.1760223, "stars": 3.0, "review_count": 23, "is_open": 1, "attributes": {"RestaurantsTableService": true, "GoodForMeal": {"dessert": false, "latenight": false, "lunch": true, "dinner": true, "breakfast": false, "brunch": false}, "Alcohol": "none", "Caters": true, "HasTV": true, "RestaurantsGoodForGroups": true, "NoiseLevel": "average", "WiFi": "no", "RestaurantsAttire": "casual", "RestaurantsReservations": false, "OutdoorSeating": false, "BusinessAcceptsCreditCards": true, "RestaurantsPriceRange2": 2, "BikeParking": true, "RestaurantsDelivery": false, "Ambience": {"romantic": false, "intimate": false, "classy": false, "hipster": false, "divey": false, "touristy": false, "trendy": false, "upscale": false, "casual": true}, "RestaurantsTakeOut": true, "GoodForKids": true, "BusinessParking": {"garage": false, "street": false, "validated": false, "lot": true, "valet": false}}, "categories": ["Barbeque", "Restaurants"], "hours": {"Monday": "11:00-21:00", "Tuesday": "11:00-21:00", "Friday": "11:00-21:00", "Wednesday": "11:00-21:00", "Thursday": "11:00-21:00", "Sunday": "11:00-15:00", "Saturday": "11:00-21:00"}}, {"business_id": "iRPCc8ma_gYChe9_WeT7Fg", "name": "Bojangles'", "neighborhood": "", "address": "400 E Garrison Blvd", "city": "Gastonia", "state": "NC", "postal_code": "28054", "latitude": 35.2538164, "longitude": -81.17603, "stars": 3.0, "review_count": 3, "is_open": 1, "attributes": {"GoodForMeal": {"dessert": false, "latenight": false, "lunch": false, "dinner": false, "breakfast": false, "brunch": false}, "HasTV": false, "RestaurantsGoodForGroups": false, "WiFi": "no", "RestaurantsAttire": "casual", "RestaurantsReservations": false, "BusinessAcceptsCreditCards": true, "RestaurantsPriceRange2": 1, "RestaurantsDelivery": false, "Ambience": {"romantic": false, "intimate": false, "classy": false, "hipster": false, "divey": false, "touristy": false, "trendy": false, "upscale": false, "casual": false}, "RestaurantsTakeOut": true, "GoodForKids": false}, "categories": ["American (New)", "Fast Food", "American (New)", "Restaurants"], "hours": {}}, {"business_id": "AvtX_PVdaaDPEZNIcGzbOw", "name": "Trackside Grill", "neighborhood": "", "address": "109 E Hudson Blvd", "city": "Gastonia", "state": "NC", "postal_code": "28054", "latitude": 35.2330869728, "longitude": -81.1936221644, "stars": 3.5, "review_count": 15, "is_open": 1, "attributes": {"GoodForMeal": {"dessert": false, "latenight": false, "lunch": false, "dinner": false, "breakfast": false, "brunch": false}, "BusinessParking": {"garage": false, "street": false, "validated": false, "lot": false, "valet": false}, "HasTV": true, "RestaurantsGoodForGroups": false, "NoiseLevel": "average", "RestaurantsAttire": "casual", "RestaurantsReservations": false, "OutdoorSeating": true, "BusinessAcceptsCreditCards": true, "RestaurantsPriceRange2": 1, "BikeParking": false, "RestaurantsDelivery": false, "Ambience": {"romantic": false, "intimate": false, "classy": false, "hipster": false, "divey": false, "touristy": false, "trendy": false, "upscale": false, "casual": false}, "RestaurantsTakeOut": true, "GoodForKids": true, "RestaurantsTableService": false}, "categories": ["Breakfast & Brunch", "Restaurants", "Fast Food", "Diners"], "hours": {"Monday": "6:00-20:00", "Tuesday": "6:00-20:00", "Friday": "6:00-20:00", "Wednesday": "6:00-20:00", "Thursday": "6:00-20:00", "Sunday": "7:00-19:00", "Saturday": "6:00-20:00"}}, {"business_id": "QR8_Ma63hQS90QfIearKaA", "name": "Lotus Bar & Eatery", "neighborhood": "", "address": "1941 Hoffman Rd, Ste 1", "city": "Gastonia", "state": "NC", "postal_code": "28054", "latitude": 35.2253341, "longitude": -81.1329794, "stars": 4.0, "review_count": 60, "is_open": 1, "attributes": {"Alcohol": "full_bar", "HasTV": false, "NoiseLevel": "average", "RestaurantsAttire": "casual", "BusinessAcceptsCreditCards": true, "Music": {"dj": false, "background_music": false, "no_music": false, "karaoke": false, "live": false, "video": false, "jukebox": false}, "Ambience": {"romantic": false, "intimate": false, "classy": false, "hipster": false, "divey": false, "touristy": false, "trendy": true, "upscale": false, "casual": false}, "RestaurantsGoodForGroups": true, "Caters": false, "WiFi": "no", "RestaurantsReservations": true, "RestaurantsTableService": true, "RestaurantsTakeOut": true, "GoodForKids": true, "HappyHour": true, "GoodForDancing": false, "BikeParking": true, "OutdoorSeating": true, "RestaurantsPriceRange2": 2, "RestaurantsDelivery": false, "BestNights": {"monday": false, "tuesday": false, "friday": false, "wednesday": false, "thursday": true, "sunday": false, "saturday": false}, "GoodForMeal": {"dessert": false, "latenight": false, "lunch": false, "dinner": true, "breakfast": false, "brunch": false}, "BusinessParking": {"garage": false, "street": false, "validated": false, "lot": true, "valet": false}, "CoatCheck": false, "Smoking": "outdoor", "WheelchairAccessible": true}, "categories": ["Nightlife", "American (New)", "Bars", "Restaurants"], "hours": {"Monday": "16:30-22:00", "Tuesday": "16:30-22:00", "Friday": "16:30-22:00", "Wednesday": "16:30-22:00", "Thursday": "16:30-22:00", "Sunday": "16:30-22:00", "Saturday": "16:30-22:00"}}, {"business_id": "nNhyYzryNS0Ef2Zl9QSJgg", "name": "Little Asia", "neighborhood": "", "address": "2609 S New Hope Rd", "city": "Gastonia", "state": "NC", "postal_code": "28056", "latitude": 35.2398343, "longitude": -81.1229533, "stars": 2.5, "review_count": 6, "is_open": 1, "attributes": {"RestaurantsAttire": "casual", "BusinessParking": {"garage": false, "street": false, "validated": false, "lot": false, "valet": false}, "RestaurantsReservations": false, "HasTV": false}, "categories": ["Restaurants", "Chinese"], "hours": {}}, {"business_id": "_hJy4lG6iuWIE95UYHJyiw", "name": "Tequila Mexican Restaurant", "neighborhood": "", "address": "2212 Union Rd, Ste 300", "city": "Gastonia", "state": "NC", "postal_code": "28054", "latitude": 35.232622, "longitude": -81.167698, "stars": 4.0, "review_count": 9, "is_open": 1, "attributes": {"GoodForMeal": {"dessert": false, "latenight": false, "lunch": false, "dinner": false, "breakfast": false, "brunch": false}, "HasTV": true, "RestaurantsGoodForGroups": true, "RestaurantsAttire": "casual", "RestaurantsReservations": false, "OutdoorSeating": false, "BusinessAcceptsCreditCards": true, "RestaurantsPriceRange2": 2, "BikeParking": false, "RestaurantsDelivery": false, "Ambience": {"romantic": false, "intimate": false, "classy": false, "hipster": false, "divey": false, "touristy": false, "trendy": false, "upscale": false, "casual": false}, "RestaurantsTakeOut": true, "GoodForKids": true}, "categories": ["Restaurants", "Mexican"], "hours": {"Monday": "11:00-21:30", "Tuesday": "11:00-21:30", "Friday": "11:00-22:30", "Wednesday": "11:00-21:30", "Thursday": "11:00-21:30", "Sunday": "11:00-21:00", "Saturday": "11:00-22:00"}}, {"business_id": "2nsMgH0zh8hK4Bu55fYxlA", "name": "Tang Lin", "neighborhood": "", "address": "1808 S York Rd", "city": "Gastonia", "state": "NC", "postal_code": "28052", "latitude": 35.2397827, "longitude": -81.1946503, "stars": 4.5, "review_count": 9, "is_open": 1, "attributes": {"GoodForMeal": {"dessert": false, "latenight": false, "lunch": false, "dinner": false, "breakfast": false, "brunch": false}, "Alcohol": "full_bar", "Caters": true, "HasTV": false, "RestaurantsGoodForGroups": true, "NoiseLevel": "quiet", "WiFi": "no", "RestaurantsAttire": "casual", "RestaurantsReservations": false, "OutdoorSeating": false, "BusinessAcceptsCreditCards": true, "RestaurantsPriceRange2": 2, "RestaurantsTableService": true, "RestaurantsDelivery": false, "Ambience": {"romantic": false, "intimate": false, "classy": false, "hipster": false, "divey": false, "touristy": false, "trendy": false, "upscale": false, "casual": false}, "RestaurantsTakeOut": true, "GoodForKids": true, "BusinessParking": {"garage": false, "street": false, "validated": false, "lot": false, "valet": false}}, "categories": ["Indian", "Restaurants", "Chinese", "Asian Fusion"], "hours": {"Tuesday": "11:30-21:30", "Friday": "11:30-22:00", "Wednesday": "11:30-21:30", "Thursday": "11:30-21:30", "Sunday": "11:30-21:30", "Saturday": "11:30-22:00"}}, {"business_id": "mSu0I8KFcJ-f3HUnB6gwiQ", "name": "Sake Express", "neighborhood": "", "address": "1327 E Franklin Blvd", "city": "Gastonia", "state": "NC", "postal_code": "28054", "latitude": 35.262034, "longitude": -81.157038, "stars": 4.0, "review_count": 62, "is_open": 1, "attributes": {"RestaurantsTableService": true, "GoodForMeal": {"dessert": false, "latenight": false, "lunch": true, "dinner": true, "breakfast": false, "brunch": false}, "Alcohol": "none", "Caters": true, "HasTV": false, "RestaurantsGoodForGroups": true, "NoiseLevel": "average", "WiFi": "free", "RestaurantsAttire": "casual", "RestaurantsReservations": false, "OutdoorSeating": true, "BusinessAcceptsCreditCards": true, "RestaurantsPriceRange2": 1, "BikeParking": true, "RestaurantsDelivery": false, "Ambience": {"romantic": false, "intimate": false, "classy": false, "hipster": false, "divey": false, "touristy": false, "trendy": false, "upscale": false, "casual": true}, "RestaurantsTakeOut": true, "GoodForKids": true, "WheelchairAccessible": true, "BusinessParking": {"garage": false, "street": false, "validated": false, "lot": true, "valet": false}}, "categories": ["Specialty Food", "Restaurants", "Japanese", "American (New)", "Japanese", "Food"], "hours": {"Monday": "11:00-22:00", "Tuesday": "11:00-22:00", "Friday": "11:00-22:00", "Wednesday": "11:00-22:00", "Thursday": "11:00-22:00", "Sunday": "11:00-21:00", "Saturday": "11:00-22:00"}}, {"business_id": "F_eQ1dpPGHM0vYUrKXKSLQ", "name": "Jenn's Sugarlicious Bakery", "neighborhood": "", "address": "3078 E Franklin Blvd", "city": "Gastonia", "state": "NC", "postal_code": "28056", "latitude": 35.259252, "longitude": -81.1223086, "stars": 3.5, "review_count": 23, "is_open": 1, "attributes": {"BusinessParking": {"garage": false, "street": false, "validated": false, "lot": true, "valet": false}, "BusinessAcceptsCreditCards": true, "RestaurantsPriceRange2": 2, "BikeParking": false, "RestaurantsDelivery": false, "RestaurantsTakeOut": true}, "categories": ["Bakeries", "Food"], "hours": {}}, {"business_id": "2Hp-7pC5FkOpcS_utf-olg", "name": "McDonald's", "neighborhood": "", "address": "2998 E Franklin Blvd", "city": "Gastonia", "state": "NC", "postal_code": "28056", "latitude": 35.259579, "longitude": -81.125243, "stars": 1.5, "review_count": 11, "is_open": 1, "attributes": {"GoodForMeal": {"dessert": false, "latenight": false, "lunch": false, "dinner": false, "breakfast": true, "brunch": false}, "Alcohol": "none", "Caters": false, "HasTV": true, "RestaurantsGoodForGroups": true, "NoiseLevel": "loud", "WiFi": "free", "RestaurantsAttire": "dressy", "RestaurantsReservations": false, "OutdoorSeating": false, "BusinessAcceptsCreditCards": true, "RestaurantsPriceRange2": 1, "BikeParking": true, "RestaurantsDelivery": false, "Ambience": {"romantic": false, "intimate": false, "classy": false, "hipster": false, "divey": false, "touristy": false, "trendy": false, "upscale": false, "casual": false}, "RestaurantsTakeOut": true, "GoodForKids": true, "DriveThru": true, "RestaurantsTableService": false}, "categories": ["Fast Food", "Restaurants", "Fast Food"], "hours": {}}, {"business_id": "dwAPMrdLwSn1KCsJzz_oLA", "name": "Hickory Tavern", "neighborhood": "", "address": "1925 Hoffman Rd", "city": "Gastonia", "state": "NC", "postal_code": "28054", "latitude": 35.225924, "longitude": -81.133374, "stars": 2.5, "review_count": 33, "is_open": 1, "attributes": {"Alcohol": "full_bar", "HasTV": true, "NoiseLevel": "average", "RestaurantsAttire": "casual", "BusinessAcceptsCreditCards": true, "Music": {"dj": false, "background_music": false, "no_music": false, "karaoke": false, "live": false, "video": false, "jukebox": false}, "Ambience": {"romantic": false, "intimate": false, "classy": false, "hipster": false, "divey": false, "touristy": false, "trendy": false, "upscale": false, "casual": false}, "RestaurantsGoodForGroups": true, "Caters": true, "WiFi": "free", "RestaurantsReservations": false, "RestaurantsTableService": true, "RestaurantsTakeOut": true, "GoodForKids": true, "HappyHour": true, "GoodForDancing": false, "BikeParking": false, "OutdoorSeating": true, "RestaurantsPriceRange2": 2, "RestaurantsDelivery": false, "BestNights": {"monday": false, "tuesday": false, "friday": false, "wednesday": false, "thursday": false, "sunday": false, "saturday": true}, "GoodForMeal": {"dessert": false, "latenight": false, "lunch": false, "dinner": false, "breakfast": false, "brunch": false}, "BusinessParking": {"garage": false, "street": false, "validated": false, "lot": false, "valet": false}, "CoatCheck": false, "Smoking": "outdoor"}, "categories": ["Restaurants", "Sports Bars", "Nightlife", "Bars", "American (Traditional)"], "hours": {"Monday": "11:00-0:00", "Tuesday": "11:00-0:00", "Friday": "11:00-2:00", "Wednesday": "11:00-2:00", "Thursday": "11:00-2:00", "Sunday": "11:00-0:00", "Saturday": "11:00-2:00"}}, {"business_id": "nMl2QWpH3J0r0-rdjBSefA", "name": "IHOP", "neighborhood": "", "address": "504 Cox Rd", "city": "Gastonia", "state": "NC", "postal_code": "28054", "latitude": 35.2658915, "longitude": -81.1327466, "stars": 2.5, "review_count": 22, "is_open": 1, "attributes": {"RestaurantsTableService": true, "GoodForMeal": {"dessert": true, "latenight": false, "lunch": false, "dinner": false, "breakfast": true, "brunch": true}, "Alcohol": "none", "Caters": false, "HasTV": false, "RestaurantsGoodForGroups": true, "NoiseLevel": "average", "WiFi": "no", "RestaurantsAttire": "casual", "RestaurantsReservations": false, "OutdoorSeating": false, "BusinessAcceptsCreditCards": true, "RestaurantsPriceRange2": 1, "BikeParking": false, "RestaurantsDelivery": false, "Ambience": {"romantic": false, "intimate": false, "classy": false, "hipster": false, "divey": false, "touristy": false, "trendy": false, "upscale": false, "casual": true}, "RestaurantsTakeOut": true, "GoodForKids": true, "BusinessParking": {"garage": false, "street": false, "validated": false, "lot": true, "valet": false}}, "categories": ["Restaurants", "Breakfast & Brunch", "American (Traditional)"], "hours": {"Monday": "6:00-0:00", "Tuesday": "6:00-0:00", "Friday": "0:00-0:00", "Wednesday": "6:00-0:00", "Thursday": "6:00-0:00", "Sunday": "6:00-0:00", "Saturday": "0:00-0:00"}}, {"business_id": "44diypduswYIqxBSrNr0lA", "name": "Popeyes Louisiana Kitchen", "neighborhood": "", "address": "3430 E Franklin Blvd", "city": "Gastonia", "state": "NC", "postal_code": "28056", "latitude": 35.2586468, "longitude": -81.1192273, "stars": 2.5, "review_count": 14, "is_open": 1, "attributes": {"GoodForMeal": {"dessert": false, "latenight": false, "lunch": false, "dinner": false, "breakfast": false, "brunch": false}, "HasTV": true, "RestaurantsGoodForGroups": true, "NoiseLevel": "average", "RestaurantsAttire": "casual", "RestaurantsReservations": false, "OutdoorSeating": true, "BusinessAcceptsCreditCards": true, "RestaurantsPriceRange2": 2, "RestaurantsDelivery": false, "RestaurantsTakeOut": true, "GoodForKids": true, "DriveThru": true}, "categories": ["American (New)", "American (Traditional)", "Fast Food", "Restaurants"], "hours": {}}, {"business_id": "nHtKNIr64Pl_91RzKoOvFw", "name": "Hillbilly's Bbq & Steaks", "neighborhood": "", "address": "930 E Garrison Blvd", "city": "Gastonia", "state": "NC", "postal_code": "28054", "latitude": 35.253538, "longitude": -81.1674529, "stars": 3.5, "review_count": 31, "is_open": 1, "attributes": {"RestaurantsTableService": true, "GoodForMeal": {"dessert": false, "latenight": false, "lunch": true, "dinner": true, "breakfast": false, "brunch": false}, "Alcohol": "none", "Caters": true, "HasTV": false, "RestaurantsGoodForGroups": true, "NoiseLevel": "average", "WiFi": "no", "RestaurantsAttire": "casual", "RestaurantsReservations": false, "OutdoorSeating": false, "BusinessAcceptsCreditCards": true, "RestaurantsPriceRange2": 2, "BikeParking": true, "RestaurantsDelivery": false, "Ambience": {"romantic": false, "intimate": false, "classy": false, "hipster": false, "divey": false, "touristy": false, "trendy": false, "upscale": false, "casual": false}, "RestaurantsTakeOut": true, "GoodForKids": true, "BusinessParking": {"garage": false, "street": false, "validated": false, "lot": false, "valet": false}}, "categories": ["American (New)", "Barbeque", "Restaurants"], "hours": {"Monday": "11:00-21:00", "Tuesday": "11:00-21:00", "Friday": "11:00-21:30", "Wednesday": "11:00-21:00", "Thursday": "11:00-21:00", "Sunday": "11:00-15:00", "Saturday": "11:00-21:30"}}, {"business_id": "ULorIRUT_iUhfhgosY4ubw", "name": "Thai House - Gastonia", "neighborhood": "", "address": "4008 E Franklin Blvd, Ste H150", "city": "Gastonia", "state": "NC", "postal_code": "28056", "latitude": 35.2572675, "longitude": -81.1101021, "stars": 4.0, "review_count": 125, "is_open": 1, "attributes": {"RestaurantsTableService": true, "GoodForMeal": {"dessert": false, "latenight": false, "lunch": true, "dinner": true, "breakfast": false, "brunch": false}, "DogsAllowed": false, "Alcohol": "beer_and_wine", "Caters": true, "HasTV": true, "RestaurantsGoodForGroups": true, "NoiseLevel": "quiet", "WiFi": "free", "RestaurantsAttire": "casual", "RestaurantsReservations": true, "OutdoorSeating": true, "BusinessAcceptsCreditCards": true, "RestaurantsPriceRange2": 2, "BikeParking": true, "RestaurantsDelivery": false, "Ambience": {"romantic": false, "intimate": false, "classy": false, "hipster": false, "divey": false, "touristy": false, "trendy": false, "upscale": false, "casual": true}, "RestaurantsTakeOut": true, "GoodForKids": true, "WheelchairAccessible": true, "BusinessParking": {"garage": false, "street": false, "validated": false, "lot": true, "valet": false}}, "categories": ["Thai", "Restaurants", "Japanese"], "hours": {"Monday": "11:00-21:00", "Tuesday": "11:00-21:00", "Friday": "11:00-22:00", "Wednesday": "11:00-21:00", "Thursday": "11:00-21:00", "Sunday": "11:00-21:00", "Saturday": "11:00-22:00"}}, {"business_id": "M9Ff-3kgqCbVZEMJsPSqXQ", "name": "Schlotzsky's", "neighborhood": "", "address": "3735 East Franklin Blvd", "city": "Gastonia", "state": "NC", "postal_code": "28056", "latitude": 35.2568714, "longitude": -81.1127538, "stars": 4.5, "review_count": 24, "is_open": 1, "attributes": {"RestaurantsTableService": false, "GoodForMeal": {"dessert": false, "latenight": false, "lunch": true, "dinner": false, "breakfast": false, "brunch": false}, "Alcohol": "none", "Caters": true, "HasTV": false, "RestaurantsGoodForGroups": true, "NoiseLevel": "average", "WiFi": "free", "RestaurantsAttire": "casual", "RestaurantsReservations": false, "OutdoorSeating": true, "BusinessAcceptsCreditCards": true, "RestaurantsPriceRange2": 1, "BikeParking": true, "RestaurantsDelivery": false, "Ambience": {"romantic": false, "intimate": false, "classy": false, "hipster": false, "divey": false, "touristy": false, "trendy": false, "upscale": false, "casual": true}, "RestaurantsTakeOut": true, "GoodForKids": true, "WheelchairAccessible": true, "BusinessParking": {"garage": false, "street": false, "validated": false, "lot": true, "valet": false}}, "categories": ["Restaurants", "Delis", "Fast Food"], "hours": {"Monday": "10:30-21:30", "Tuesday": "10:30-21:30", "Friday": "10:30-22:00", "Wednesday": "10:30-21:30", "Thursday": "10:30-21:30", "Sunday": "10:30-21:30", "Saturday": "10:30-22:00"}}, {"business_id": "CDZarSyFd9s9gM24sF2VAQ", "name": "cheddars", "neighborhood": "", "address": "Franklin Blvd", "city": "Gastonia", "state": "NC", "postal_code": "", "latitude": 35.261621627, "longitude": -81.1410457274, "stars": 3.0, "review_count": 4, "is_open": 1, "attributes": {"BusinessParking": {"garage": false, "street": false, "validated": false, "lot": false, "valet": false}, "NoiseLevel": "very_loud", "RestaurantsAttire": "casual", "BusinessAcceptsCreditCards": true, "RestaurantsPriceRange2": 3, "RestaurantsDelivery": false, "RestaurantsTakeOut": true, "GoodForKids": true}, "categories": ["Restaurants", "American (New)"], "hours": {}}, {"business_id": "i-W7RJVDVpwIFR6QMzsx2w", "name": "Arby's", "neighborhood": "", "address": "524 Cox Rd", "city": "Gastonia", "state": "NC", "postal_code": "28054", "latitude": 35.266913, "longitude": -81.133357, "stars": 2.0, "review_count": 3, "is_open": 1, "attributes": {"GoodForMeal": {"dessert": false, "latenight": false, "lunch": false, "dinner": false, "breakfast": false, "brunch": false}, "RestaurantsGoodForGroups": true, "RestaurantsAttire": "casual", "RestaurantsReservations": false, "OutdoorSeating": false, "BusinessAcceptsCreditCards": true, "RestaurantsPriceRange2": 1, "RestaurantsDelivery": false, "Ambience": {"romantic": false, "intimate": false, "classy": false, "hipster": false, "divey": false, "touristy": false, "trendy": false, "upscale": false, "casual": false}, "RestaurantsTakeOut": true, "GoodForKids": true}, "categories": ["Restaurants", "Fast Food", "Fast Food"], "hours": {}}, {"business_id": "hDwlVqoOOFuWX6DG41QP5g", "name": "China City", "neighborhood": "", "address": "1975 Davis Park Rd", "city": "Gastonia", "state": "NC", "postal_code": "28052", "latitude": 35.2355418, "longitude": -81.2210729, "stars": 4.0, "review_count": 3, "is_open": 1, "attributes": {"HasTV": false, "RestaurantsGoodForGroups": false, "RestaurantsAttire": "casual", "RestaurantsReservations": false, "OutdoorSeating": false, "BusinessAcceptsCreditCards": false, "BikeParking": true, "RestaurantsDelivery": false, "RestaurantsTakeOut": true, "GoodForKids": true}, "categories": ["Restaurants", "Chinese"], "hours": {}}, {"business_id": "8j1qPmhc1tPMo1U42VpneA", "name": "Hungry Howie's Pizza", "neighborhood": "", "address": "3320 Robinwood Rd", "city": "Gastonia", "state": "NC", "postal_code": "28054", "latitude": 35.2165279, "longitude": -81.158823, "stars": 3.5, "review_count": 3, "is_open": 1, "attributes": {"BusinessAcceptsCreditCards": true, "RestaurantsGoodForGroups": false, "GoodForKids": true, "RestaurantsTakeOut": true, "RestaurantsDelivery": true}, "categories": ["Restaurants", "Pizza"], "hours": {"Monday": "10:00-0:00", "Tuesday": "10:00-0:00", "Friday": "10:00-1:00", "Wednesday": "10:00-0:00", "Thursday": "10:00-0:00", "Sunday": "10:00-0:00", "Saturday": "10:00-1:00"}}, {"business_id": "pbCpZkOuLjr7sdiAdxw1EA", "name": "Twin Tops Fish Camp", "neighborhood": "", "address": "4574 S New Hope Rd", "city": "Gastonia", "state": "NC", "postal_code": "28056", "latitude": 35.2067403, "longitude": -81.0753533, "stars": 3.5, "review_count": 19, "is_open": 1, "attributes": {"RestaurantsTableService": true, "GoodForMeal": {"dessert": false, "latenight": false, "lunch": false, "dinner": true, "breakfast": false, "brunch": false}, "Alcohol": "none", "Caters": false, "HasTV": true, "RestaurantsGoodForGroups": true, "NoiseLevel": "average", "WiFi": "no", "RestaurantsAttire": "casual", "RestaurantsReservations": false, "OutdoorSeating": false, "BusinessAcceptsCreditCards": true, "RestaurantsPriceRange2": 2, "BikeParking": true, "RestaurantsDelivery": false, "Ambience": {"romantic": false, "intimate": false, "classy": false, "hipster": false, "divey": false, "touristy": false, "trendy": false, "upscale": false, "casual": true}, "RestaurantsTakeOut": true, "GoodForKids": true, "WheelchairAccessible": true, "BusinessParking": {"garage": false, "street": false, "validated": false, "lot": true, "valet": false}}, "categories": ["Seafood", "Restaurants"], "hours": {"Tuesday": "16:00-21:00", "Friday": "16:00-22:00", "Wednesday": "16:00-21:00", "Thursday": "16:00-21:30", "Saturday": "15:00-22:00"}}, {"business_id": "-i1NHzA-ymVc0vNKwNa88Q", "name": "Logan's Roadhouse", "neighborhood": "", "address": "2840 E Franklin Blvd", "city": "Gastonia", "state": "NC", "postal_code": "28056", "latitude": 35.260224, "longitude": -81.128767, "stars": 3.5, "review_count": 27, "is_open": 1, "attributes": {"RestaurantsTableService": true, "GoodForMeal": {"dessert": false, "latenight": false, "lunch": false, "dinner": true, "breakfast": false, "brunch": false}, "Alcohol": "full_bar", "Caters": false, "HasTV": true, "RestaurantsGoodForGroups": true, "NoiseLevel": "average", "WiFi": "no", "RestaurantsAttire": "casual", "RestaurantsReservations": false, "OutdoorSeating": false, "BusinessAcceptsCreditCards": true, "RestaurantsPriceRange2": 2, "BikeParking": true, "RestaurantsDelivery": false, "Ambience": {"romantic": false, "intimate": false, "classy": false, "hipster": false, "divey": false, "touristy": false, "trendy": false, "upscale": false, "casual": true}, "RestaurantsTakeOut": true, "GoodForKids": true, "WheelchairAccessible": true, "BusinessParking": {"garage": false, "street": false, "validated": false, "lot": true, "valet": false}}, "categories": ["Restaurants", "Barbeque", "American (New)", "American (Traditional)"], "hours": {"Monday": "11:00-22:00", "Tuesday": "11:00-22:00", "Friday": "11:00-23:00", "Wednesday": "11:00-22:00", "Thursday": "11:00-22:00", "Sunday": "11:00-22:00", "Saturday": "11:00-23:00"}}, {"business_id": "WZdHNL9F0VWPRGLf1GQcbA", "name": "Steak 'n Shake", "neighborhood": "", "address": "2656 E Franklin Blvd", "city": "Gastonia", "state": "NC", "postal_code": "28056", "latitude": 35.2606186789, "longitude": -81.1305777781, "stars": 3.0, "review_count": 25, "is_open": 1, "attributes": {"RestaurantsTableService": true, "GoodForMeal": {"dessert": true, "latenight": false, "lunch": true, "dinner": true, "breakfast": false, "brunch": false}, "Alcohol": "none", "Caters": false, "HasTV": false, "RestaurantsGoodForGroups": true, "NoiseLevel": "quiet", "WiFi": "free", "RestaurantsAttire": "casual", "RestaurantsReservations": false, "OutdoorSeating": false, "BusinessAcceptsCreditCards": true, "RestaurantsPriceRange2": 1, "BikeParking": false, "RestaurantsDelivery": false, "Ambience": {"romantic": false, "intimate": false, "classy": false, "hipster": false, "divey": false, "touristy": false, "trendy": false, "upscale": false, "casual": false}, "RestaurantsTakeOut": true, "GoodForKids": true, "DriveThru": true, "BusinessParking": {"garage": false, "street": false, "validated": false, "lot": true, "valet": false}}, "categories": ["Restaurants", "Breakfast & Brunch", "Fast Food", "Fast Food", "American (New)"], "hours": {"Monday": "6:00-0:00", "Tuesday": "6:00-0:00", "Friday": "6:00-0:00", "Wednesday": "6:00-0:00", "Thursday": "6:00-0:00", "Sunday": "0:00-0:00", "Saturday": "0:00-0:00"}}, {"business_id": "tb4BwD_IuTGVBavYwWkPuA", "name": "Chick-fil-A", "neighborhood": "", "address": "3350 E Franklin Blvd", "city": "Gastonia", "state": "NC", "postal_code": "28056", "latitude": 35.258838, "longitude": -81.120197, "stars": 1.5, "review_count": 26, "is_open": 1, "attributes": {"GoodForMeal": {"dessert": false, "latenight": false, "lunch": false, "dinner": false, "breakfast": false, "brunch": false}, "Caters": true, "HasTV": false, "RestaurantsGoodForGroups": true, "WiFi": "free", "RestaurantsAttire": "casual", "RestaurantsReservations": false, "OutdoorSeating": true, "BusinessAcceptsCreditCards": true, "RestaurantsPriceRange2": 1, "BikeParking": false, "RestaurantsDelivery": false, "Ambience": {"romantic": false, "intimate": false, "classy": false, "hipster": false, "divey": false, "touristy": false, "trendy": false, "upscale": false, "casual": false}, "RestaurantsTakeOut": true, "GoodForKids": true, "DriveThru": true}, "categories": ["Fast Food", "Event Planning & Services", "Caterers", "Restaurants"], "hours": {"Monday": "6:30-22:00", "Tuesday": "6:30-22:00", "Friday": "6:30-22:00", "Wednesday": "6:30-22:00", "Thursday": "6:30-22:00", "Saturday": "6:30-22:00"}}, {"business_id": "49an1NH5gW6SQD80e6LQEg", "name": "Cook Out", "neighborhood": "", "address": "2810 E Franklin Blvd", "city": "Gastonia", "state": "NC", "postal_code": "28054", "latitude": 35.2604155204, "longitude": -81.1299565387, "stars": 3.0, "review_count": 10, "is_open": 1, "attributes": {"GoodForMeal": {"dessert": false, "latenight": false, "lunch": true, "dinner": false, "breakfast": false, "brunch": false}, "Alcohol": "none", "HasTV": false, "RestaurantsGoodForGroups": false, "WiFi": "no", "RestaurantsAttire": "casual", "RestaurantsReservations": false, "OutdoorSeating": true, "BusinessAcceptsCreditCards": true, "RestaurantsPriceRange2": 2, "BikeParking": true, "RestaurantsDelivery": false, "Ambience": {"romantic": false, "intimate": false, "classy": false, "hipster": false, "divey": false, "touristy": false, "trendy": false, "upscale": false, "casual": false}, "RestaurantsTakeOut": true, "GoodForKids": true, "DriveThru": true}, "categories": ["Restaurants", "Fast Food", "Fast Food"], "hours": {"Monday": "10:30-2:00", "Tuesday": "10:30-2:00", "Friday": "10:30-3:30", "Wednesday": "10:30-2:00", "Thursday": "10:30-2:00", "Sunday": "10:30-2:00", "Saturday": "10:30-3:30"}}, {"business_id": "3eNRMrdaFSfid7KQF4BwpA", "name": "Lucky Cafe", "neighborhood": "", "address": "3670 S New Hope Rd", "city": "Gastonia", "state": "NC", "postal_code": "28056", "latitude": 35.2218212, "longitude": -81.1012177, "stars": 4.0, "review_count": 18, "is_open": 1, "attributes": {"RestaurantsTableService": false, "GoodForMeal": {"dessert": false, "latenight": false, "lunch": false, "dinner": false, "breakfast": false, "brunch": false}, "Alcohol": "none", "HasTV": false, "RestaurantsGoodForGroups": false, "NoiseLevel": "quiet", "RestaurantsAttire": "casual", "RestaurantsReservations": false, "OutdoorSeating": false, "BusinessAcceptsCreditCards": true, "RestaurantsPriceRange2": 1, "BikeParking": true, "RestaurantsDelivery": false, "Ambience": {"romantic": false, "intimate": false, "classy": false, "hipster": false, "divey": false, "touristy": false, "trendy": false, "upscale": false, "casual": false}, "RestaurantsTakeOut": true, "GoodForKids": true, "BusinessParking": {"garage": false, "street": false, "validated": false, "lot": false, "valet": false}}, "categories": ["Chinese", "Restaurants"], "hours": {"Monday": "11:00-22:00", "Tuesday": "11:00-22:00", "Friday": "11:00-23:00", "Wednesday": "11:00-22:00", "Thursday": "11:00-22:00", "Sunday": "11:30-22:00", "Saturday": "11:00-23:00"}}, {"business_id": "yqMnLsYVQqB7Xm73M0bhLQ", "name": "Black's Barbecue", "neighborhood": "", "address": "2902 York Hwy", "city": "Gastonia", "state": "NC", "postal_code": "28052", "latitude": 35.2258969, "longitude": -81.1992686, "stars": 3.5, "review_count": 15, "is_open": 1, "attributes": {"RestaurantsTableService": true, "GoodForMeal": {"dessert": false, "latenight": false, "lunch": true, "dinner": false, "breakfast": false, "brunch": false}, "Alcohol": "none", "Caters": false, "HasTV": false, "RestaurantsGoodForGroups": true, "NoiseLevel": "average", "WiFi": "no", "RestaurantsAttire": "casual", "RestaurantsReservations": false, "OutdoorSeating": false, "BusinessAcceptsCreditCards": false, "RestaurantsPriceRange2": 1, "BikeParking": true, "RestaurantsDelivery": false, "Ambience": {"romantic": false, "intimate": false, "classy": false, "hipster": false, "divey": false, "touristy": false, "trendy": false, "upscale": false, "casual": false}, "RestaurantsTakeOut": true, "GoodForKids": true, "WheelchairAccessible": true, "BusinessParking": {"garage": false, "street": false, "validated": false, "lot": false, "valet": false}}, "categories": ["Restaurants", "Barbeque"], "hours": {}}, {"business_id": "u5KyjlgT5gt8cpItNwGA6g", "name": "Arline's Grill", "neighborhood": "", "address": "3039 Union Rd", "city": "Gastonia", "state": "NC", "postal_code": "28056", "latitude": 35.2148159, "longitude": -81.1670833, "stars": 4.5, "review_count": 14, "is_open": 1, "attributes": {"GoodForMeal": {"dessert": false, "latenight": false, "lunch": false, "dinner": false, "breakfast": true, "brunch": false}, "Alcohol": "none", "HasTV": true, "RestaurantsGoodForGroups": false, "NoiseLevel": "quiet", "RestaurantsAttire": "casual", "RestaurantsReservations": false, "OutdoorSeating": false, "BusinessAcceptsCreditCards": true, "RestaurantsPriceRange2": 1, "RestaurantsTableService": true, "RestaurantsDelivery": false, "Ambience": {"romantic": false, "intimate": false, "classy": false, "hipster": false, "divey": false, "touristy": false, "trendy": false, "upscale": false, "casual": false}, "RestaurantsTakeOut": true, "GoodForKids": true}, "categories": ["Breakfast & Brunch", "Mexican", "Southern", "Restaurants"], "hours": {}}, {"business_id": "_OgiLzwewW-0Y9_7SIirMQ", "name": "China Cafe", "neighborhood": "", "address": "2212 Union Rd", "city": "Gastonia", "state": "NC", "postal_code": "28054", "latitude": 35.2322514, "longitude": -81.1676544, "stars": 4.0, "review_count": 9, "is_open": 1, "attributes": {"GoodForMeal": {"dessert": false, "latenight": false, "lunch": false, "dinner": false, "breakfast": false, "brunch": false}, "Alcohol": "none", "HasTV": true, "RestaurantsGoodForGroups": true, "RestaurantsAttire": "casual", "RestaurantsReservations": false, "OutdoorSeating": false, "BusinessAcceptsCreditCards": true, "RestaurantsPriceRange2": 1, "RestaurantsTableService": false, "RestaurantsDelivery": false, "Ambience": {"romantic": false, "intimate": false, "classy": false, "hipster": false, "divey": false, "touristy": false, "trendy": false, "upscale": false, "casual": false}, "RestaurantsTakeOut": true, "GoodForKids": true, "WheelchairAccessible": true, "BusinessParking": {"garage": false, "street": false, "validated": false, "lot": false, "valet": false}}, "categories": ["Restaurants", "Chinese"], "hours": {"Monday": "11:00-22:00", "Tuesday": "11:00-22:00", "Friday": "11:00-23:00", "Wednesday": "11:00-22:00", "Thursday": "11:00-22:00", "Sunday": "11:30-21:30", "Saturday": "11:00-23:00"}}, {"business_id": "HbFiY9Zk3h2LM8ln0E-4ww", "name": "Sub Station II", "neighborhood": "", "address": "802 E Franklin Blvd", "city": "Gastonia", "state": "NC", "postal_code": "28054", "latitude": 35.262758, "longitude": -81.169578, "stars": 4.5, "review_count": 7, "is_open": 1, "attributes": {"Caters": true, "HasTV": false, "RestaurantsGoodForGroups": true, "WiFi": "free", "RestaurantsAttire": "casual", "RestaurantsReservations": false, "OutdoorSeating": true, "BusinessAcceptsCreditCards": true, "RestaurantsPriceRange2": 1, "BikeParking": false, "RestaurantsDelivery": false, "RestaurantsTakeOut": true, "GoodForKids": true, "WheelchairAccessible": true}, "categories": ["Fast Food", "Restaurants"], "hours": {"Monday": "11:00-21:00", "Tuesday": "11:00-21:00", "Friday": "11:00-21:00", "Wednesday": "11:00-21:00", "Thursday": "11:00-21:00", "Saturday": "11:00-19:00"}}, {"business_id": "clBejTpLnWr5afJNVY_Ayw", "name": "Akropolis Cafe", "neighborhood": "", "address": "3070 E Franklin Blvd", "city": "Gastonia", "state": "NC", "postal_code": "28056", "latitude": 35.2590993, "longitude": -81.1252008, "stars": 2.5, "review_count": 3, "is_open": 1, "attributes": {"Alcohol": "none", "RestaurantsGoodForGroups": true, "RestaurantsAttire": "casual", "RestaurantsReservations": false, "OutdoorSeating": true, "BusinessAcceptsCreditCards": true, "RestaurantsPriceRange2": 2, "RestaurantsDelivery": false, "RestaurantsTakeOut": true, "GoodForKids": true}, "categories": ["Restaurants", "Greek"], "hours": {"Monday": "12:00-21:00", "Tuesday": "12:00-21:00", "Friday": "12:00-22:00", "Wednesday": "12:00-21:00", "Thursday": "12:00-21:00", "Sunday": "12:00-20:00", "Saturday": "11:00-22:00"}}, {"business_id": "1ddi7j3nph9tuU3J3TK6LA", "name": "Cheddar's Scratch Kitchen", "neighborhood": "", "address": "2051 E Franklin Blvd", "city": "Gastonia", "state": "NC", "postal_code": "28054", "latitude": 35.2609158768, "longitude": -81.1424550271, "stars": 3.0, "review_count": 79, "is_open": 1, "attributes": {"RestaurantsTableService": true, "GoodForMeal": {"dessert": true, "latenight": false, "lunch": true, "dinner": true, "breakfast": false, "brunch": false}, "Alcohol": "full_bar", "Caters": false, "HasTV": true, "RestaurantsGoodForGroups": true, "NoiseLevel": "average", "WiFi": "no", "RestaurantsAttire": "casual", "RestaurantsReservations": false, "OutdoorSeating": true, "BusinessAcceptsCreditCards": true, "RestaurantsPriceRange2": 2, "BikeParking": true, "RestaurantsDelivery": false, "Ambience": {"romantic": false, "intimate": false, "classy": false, "hipster": false, "divey": false, "touristy": false, "trendy": false, "upscale": false, "casual": true}, "RestaurantsTakeOut": true, "GoodForKids": true, "BusinessParking": {"garage": false, "street": false, "validated": false, "lot": true, "valet": false}}, "categories": ["American (Traditional)", "Cafes", "Restaurants", "Comfort Food"], "hours": {"Monday": "11:00-22:30", "Tuesday": "11:00-22:30", "Friday": "11:00-23:30", "Wednesday": "11:00-22:30", "Thursday": "11:00-22:30", "Sunday": "11:00-22:30", "Saturday": "11:00-23:30"}}, {"business_id": "n_7KgvnPN3alWNyKhiHh5Q", "name": "Zaxby's Chicken Fingers & Buffalo Wings", "neighborhood": "", "address": "2201 W Franklin Blvd", "city": "Gastonia", "state": "NC", "postal_code": "28052", "latitude": 35.2587369, "longitude": -81.2216688, "stars": 3.5, "review_count": 3, "is_open": 1, "attributes": {"BusinessAcceptsCreditCards": true, "RestaurantsGoodForGroups": true, "GoodForKids": true, "RestaurantsReservations": false, "RestaurantsDelivery": false}, "categories": ["Fast Food", "American (New)", "Fast Food", "Restaurants"], "hours": {"Monday": "10:30-22:00", "Tuesday": "10:30-22:00", "Friday": "10:30-22:00", "Wednesday": "10:30-22:00", "Thursday": "10:30-22:00", "Sunday": "10:30-22:00", "Saturday": "10:30-22:00"}}, {"business_id": "WwM-FaW6FDkPFBwNLbkC_w", "name": "Cavendish Brewing Company", "neighborhood": "", "address": "207 N Chester St", "city": "Gastonia", "state": "NC", "postal_code": "28052", "latitude": 35.2657318, "longitude": -81.1876744, "stars": 4.0, "review_count": 3, "is_open": 1, "attributes": {"BusinessParking": {"garage": false, "street": false, "validated": false, "lot": false, "valet": false}, "HasTV": true, "NoiseLevel": "average", "WiFi": "free", "RestaurantsReservations": true, "OutdoorSeating": true, "BusinessAcceptsCreditCards": true, "RestaurantsPriceRange2": 1, "Music": {"dj": false, "background_music": false, "no_music": false, "karaoke": false, "live": true, "video": false, "jukebox": false}, "WheelchairAccessible": true, "BikeParking": true, "RestaurantsTakeOut": false, "Ambience": {"romantic": false, "intimate": false, "classy": false, "hipster": false, "divey": false, "touristy": false, "trendy": false, "upscale": false, "casual": false}, "Smoking": "no", "RestaurantsGoodForGroups": true, "HappyHour": false, "GoodForDancing": false, "Alcohol": "beer_and_wine"}, "categories": ["Food", "Breweries", "Nightlife", "Bars"], "hours": {"Sunday": "12:00-21:00", "Friday": "16:00-22:00", "Wednesday": "16:00-22:00", "Thursday": "16:00-22:00", "Saturday": "12:00-22:00"}}, {"business_id": "Jvu9O3mLOg0ddnX2HHRXvw", "name": "Red Lobster", "neighborhood": "", "address": "200 N. New Hope Road", "city": "Gastonia", "state": "NC", "postal_code": "28054", "latitude": 35.2640595, "longitude": -81.1518014, "stars": 3.0, "review_count": 14, "is_open": 1, "attributes": {"RestaurantsTableService": true, "GoodForMeal": {"dessert": false, "latenight": false, "lunch": true, "dinner": false, "breakfast": false, "brunch": false}, "Alcohol": "full_bar", "Caters": true, "HasTV": true, "RestaurantsGoodForGroups": true, "NoiseLevel": "average", "WiFi": "no", "RestaurantsAttire": "casual", "RestaurantsReservations": true, "OutdoorSeating": false, "BusinessAcceptsCreditCards": true, "RestaurantsPriceRange2": 2, "BikeParking": false, "RestaurantsDelivery": false, "Ambience": {"romantic": false, "intimate": false, "classy": false, "hipster": false, "divey": false, "touristy": false, "trendy": false, "upscale": false, "casual": true}, "RestaurantsTakeOut": true, "GoodForKids": true, "BusinessParking": {"garage": false, "street": false, "validated": false, "lot": false, "valet": false}}, "categories": ["Seafood", "American (Traditional)", "Restaurants"], "hours": {"Monday": "11:00-22:00", "Tuesday": "11:00-22:00", "Friday": "11:00-23:00", "Wednesday": "11:00-22:00", "Thursday": "11:00-22:00", "Sunday": "11:00-22:00", "Saturday": "11:00-23:00"}}, {"business_id": "rbj35x4jeuY5Anhmxx-TKg", "name": "Wild Wing Cafe", "neighborhood": "", "address": "3638 E Franklin Blvd", "city": "Gastonia", "state": "NC", "postal_code": "28056", "latitude": 35.2583385634, "longitude": -81.1147454386, "stars": 2.5, "review_count": 15, "is_open": 1, "attributes": {"RestaurantsTableService": true, "GoodForMeal": {"dessert": false, "latenight": false, "lunch": false, "dinner": false, "breakfast": false, "brunch": false}, "Alcohol": "full_bar", "HasTV": true, "RestaurantsGoodForGroups": true, "NoiseLevel": "average", "WiFi": "free", "RestaurantsAttire": "casual", "RestaurantsReservations": false, "OutdoorSeating": true, "BusinessAcceptsCreditCards": true, "RestaurantsPriceRange2": 2, "BikeParking": true, "RestaurantsDelivery": false, "Ambience": {"romantic": false, "intimate": false, "classy": false, "hipster": false, "divey": false, "touristy": false, "trendy": false, "upscale": false, "casual": false}, "RestaurantsTakeOut": true, "GoodForKids": false, "BusinessParking": {"garage": false, "street": false, "validated": false, "lot": false, "valet": false}}, "categories": ["Fast Food", "American (New)", "Fast Food", "Restaurants"], "hours": {"Monday": "11:00-2:00", "Tuesday": "11:00-2:00", "Friday": "11:00-2:00", "Wednesday": "11:00-2:00", "Thursday": "11:00-2:00", "Sunday": "11:00-2:00", "Saturday": "11:00-2:00"}}, {"business_id": "H--ZetukzfZ8AO5968iJ5g", "name": "Freeman's Pub", "neighborhood": "", "address": "173 W Main Ave", "city": "Gastonia", "state": "NC", "postal_code": "28052", "latitude": 35.2635718, "longitude": -81.1833108, "stars": 4.0, "review_count": 13, "is_open": 1, "attributes": {"Alcohol": "full_bar", "HasTV": true, "NoiseLevel": "loud", "RestaurantsAttire": "casual", "BusinessAcceptsCreditCards": true, "Music": {"dj": false, "background_music": false, "no_music": false, "karaoke": false, "live": true, "video": false, "jukebox": false}, "Ambience": {"romantic": false, "intimate": false, "classy": false, "hipster": false, "divey": true, "touristy": false, "trendy": false, "upscale": false, "casual": false}, "RestaurantsGoodForGroups": true, "Caters": true, "WiFi": "no", "RestaurantsReservations": false, "RestaurantsTableService": true, "RestaurantsTakeOut": true, "GoodForKids": false, "HappyHour": false, "GoodForDancing": false, "BikeParking": true, "OutdoorSeating": true, "RestaurantsPriceRange2": 1, "RestaurantsDelivery": false, "BestNights": {"monday": false, "tuesday": false, "friday": true, "wednesday": false, "thursday": true, "sunday": false, "saturday": true}, "GoodForMeal": {"dessert": false, "latenight": false, "lunch": false, "dinner": false, "breakfast": false, "brunch": false}, "BusinessParking": {"garage": false, "street": true, "validated": false, "lot": false, "valet": false}, "CoatCheck": false, "Smoking": "outdoor", "WheelchairAccessible": true}, "categories": ["Pubs", "Breweries", "Beer", "Wine & Spirits", "Bars", "Nightlife", "Food", "Irish", "Restaurants"], "hours": {"Monday": "16:00-0:00", "Tuesday": "16:00-0:00", "Friday": "16:00-2:00", "Wednesday": "16:00-0:00", "Thursday": "16:00-0:00", "Saturday": "18:00-2:00"}}, {"business_id": "H3seUzUzMvIPB92OP8yT_w", "name": "Golden Corral", "neighborhood": "", "address": "2300 E Franklin Blvd", "city": "Gastonia", "state": "NC", "postal_code": "28054", "latitude": 35.2621496, "longitude": -81.1379657, "stars": 2.5, "review_count": 11, "is_open": 1, "attributes": {"RestaurantsTableService": true, "GoodForMeal": {"dessert": false, "latenight": false, "lunch": false, "dinner": true, "breakfast": true, "brunch": false}, "Alcohol": "none", "Caters": false, "HasTV": false, "RestaurantsGoodForGroups": true, "NoiseLevel": "very_loud", "WiFi": "no", "RestaurantsAttire": "casual", "RestaurantsReservations": false, "OutdoorSeating": false, "BusinessAcceptsCreditCards": true, "RestaurantsPriceRange2": 2, "BikeParking": false, "RestaurantsDelivery": false, "Ambience": {"romantic": false, "intimate": false, "classy": false, "hipster": false, "divey": false, "touristy": false, "trendy": false, "upscale": false, "casual": false}, "RestaurantsTakeOut": true, "GoodForKids": true, "BusinessParking": {"garage": false, "street": false, "validated": false, "lot": true, "valet": false}}, "categories": ["American (Traditional)", "Buffets", "Comfort Food", "Restaurants"], "hours": {}}, {"business_id": "e_vhpfxhK7wXCCY9Rpta4w", "name": "Subway", "neighborhood": "", "address": "2609 S New Hope Rd, Ste 1", "city": "Gastonia", "state": "NC", "postal_code": "28056", "latitude": 35.2398343, "longitude": -81.1229533, "stars": 2.5, "review_count": 3, "is_open": 1, "attributes": {}, "categories": ["Fast Food", "Fast Food", "Restaurants"], "hours": {}}, {"business_id": "s4VnmKVefLl_2X0epsWa7g", "name": "Amber Jack Seafood & Steaks", "neighborhood": "", "address": "4253 S New Hope Rd", "city": "Gastonia", "state": "NC", "postal_code": "28056", "latitude": 35.2188893, "longitude": -81.082801, "stars": 3.5, "review_count": 27, "is_open": 1, "attributes": {"RestaurantsTableService": true, "GoodForMeal": {"dessert": true, "latenight": false, "lunch": false, "dinner": true, "breakfast": false, "brunch": false}, "Alcohol": "full_bar", "Caters": true, "HasTV": true, "RestaurantsGoodForGroups": true, "NoiseLevel": "average", "WiFi": "no", "RestaurantsAttire": "casual", "RestaurantsReservations": true, "OutdoorSeating": false, "BusinessAcceptsCreditCards": true, "RestaurantsPriceRange2": 2, "BikeParking": true, "RestaurantsDelivery": false, "Ambience": {"romantic": false, "intimate": false, "classy": false, "hipster": false, "divey": false, "touristy": false, "trendy": false, "upscale": false, "casual": true}, "RestaurantsTakeOut": true, "GoodForKids": true, "BusinessParking": {"garage": false, "street": false, "validated": false, "lot": true, "valet": false}}, "categories": ["Seafood", "American (New)", "Restaurants"], "hours": {"Tuesday": "11:00-21:00", "Friday": "11:00-22:00", "Wednesday": "11:00-21:00", "Thursday": "11:00-21:00", "Sunday": "11:00-21:00", "Saturday": "15:00-22:00"}}, {"business_id": "-33_OPx1aKM22qxioPgJ_Q", "name": "China Restaurant", "neighborhood": "", "address": "1933 Hoffman Rd, Ste 2", "city": "Gastonia", "state": "NC", "postal_code": "28054", "latitude": 35.225517, "longitude": -81.1337223, "stars": 3.0, "review_count": 8, "is_open": 1, "attributes": {"GoodForMeal": {"dessert": false, "latenight": false, "lunch": false, "dinner": false, "breakfast": false, "brunch": false}, "Alcohol": "none", "Caters": false, "HasTV": false, "RestaurantsGoodForGroups": false, "NoiseLevel": "quiet", "WiFi": "no", "RestaurantsAttire": "casual", "RestaurantsReservations": false, "OutdoorSeating": false, "BusinessAcceptsCreditCards": true, "RestaurantsPriceRange2": 2, "RestaurantsTableService": false, "RestaurantsDelivery": false, "Ambience": {"romantic": false, "intimate": false, "classy": false, "hipster": false, "divey": false, "touristy": false, "trendy": false, "upscale": false, "casual": true}, "RestaurantsTakeOut": true, "GoodForKids": true, "BusinessParking": {"garage": false, "street": false, "validated": false, "lot": false, "valet": false}}, "categories": ["Chinese", "Restaurants"], "hours": {}}, {"business_id": "0JoteSDMdGJSgYzk60vSdQ", "name": "Sprouts Cafe", "neighborhood": "", "address": "1012 S New Hope Rd", "city": "Gastonia", "state": "NC", "postal_code": "28054", "latitude": 35.2521821, "longitude": -81.1448019, "stars": 4.0, "review_count": 33, "is_open": 1, "attributes": {"RestaurantsTableService": false, "GoodForMeal": {"dessert": false, "latenight": false, "lunch": false, "dinner": false, "breakfast": false, "brunch": true}, "Alcohol": "none", "Caters": true, "HasTV": false, "RestaurantsGoodForGroups": true, "NoiseLevel": "quiet", "WiFi": "free", "RestaurantsAttire": "casual", "RestaurantsReservations": false, "OutdoorSeating": true, "BusinessAcceptsCreditCards": true, "RestaurantsPriceRange2": 2, "BikeParking": true, "RestaurantsDelivery": false, "Ambience": {"romantic": false, "intimate": false, "classy": false, "hipster": false, "divey": false, "touristy": false, "trendy": false, "upscale": false, "casual": false}, "RestaurantsTakeOut": true, "GoodForKids": true, "BusinessParking": {"garage": false, "street": false, "validated": false, "lot": true, "valet": false}}, "categories": ["Beverage", "Food", "Health Markets", "Restaurants", "Fast Food", "Specialty Food", "American (Traditional)"], "hours": {"Monday": "7:00-15:00", "Tuesday": "7:00-15:00", "Friday": "7:00-15:00", "Wednesday": "7:00-15:00", "Thursday": "7:00-15:00", "Saturday": "9:00-16:00"}}, {"business_id": "reqMBDUbr6s5zW4uzBngEQ", "name": "Spindle City Cafe", "neighborhood": "", "address": "207 W Main Ave", "city": "Gastonia", "state": "NC", "postal_code": "28052", "latitude": 35.263542, "longitude": -81.184015, "stars": 4.5, "review_count": 22, "is_open": 1, "attributes": {"RestaurantsTableService": true, "GoodForMeal": {"dessert": false, "latenight": false, "lunch": false, "dinner": false, "breakfast": false, "brunch": true}, "DogsAllowed": false, "Alcohol": "none", "Caters": true, "HasTV": false, "RestaurantsGoodForGroups": false, "NoiseLevel": "loud", "WiFi": "free", "RestaurantsAttire": "casual", "RestaurantsReservations": false, "OutdoorSeating": true, "BusinessAcceptsCreditCards": true, "RestaurantsPriceRange2": 1, "BikeParking": true, "RestaurantsDelivery": false, "Ambience": {"romantic": false, "intimate": false, "classy": false, "hipster": false, "divey": false, "touristy": false, "trendy": false, "upscale": false, "casual": true}, "RestaurantsTakeOut": true, "GoodForKids": true, "WheelchairAccessible": true, "BusinessParking": {"garage": false, "street": true, "validated": false, "lot": false, "valet": false}}, "categories": ["Cafes", "Delis", "Fast Food", "Restaurants", "Fast Food"], "hours": {"Friday": "11:00-15:00", "Tuesday": "11:00-15:00", "Thursday": "11:00-15:00", "Wednesday": "11:00-15:00", "Monday": "11:00-15:00"}}, {"business_id": "bA21m-qbgN_GNR6g-AlfYw", "name": "Dynasty Buffett", "neighborhood": "", "address": "2932 E Franklin Blvd", "city": "Gastonia", "state": "NC", "postal_code": "28056", "latitude": 35.2627353, "longitude": -81.125895, "stars": 3.0, "review_count": 22, "is_open": 1, "attributes": {"RestaurantsTableService": true, "GoodForMeal": {"dessert": false, "latenight": false, "lunch": true, "dinner": false, "breakfast": false, "brunch": false}, "Alcohol": "none", "Caters": true, "HasTV": false, "RestaurantsGoodForGroups": true, "NoiseLevel": "average", "WiFi": "free", "RestaurantsAttire": "casual", "RestaurantsReservations": false, "OutdoorSeating": false, "BusinessAcceptsCreditCards": true, "RestaurantsPriceRange2": 1, "BikeParking": true, "RestaurantsDelivery": false, "Ambience": {"romantic": false, "intimate": false, "classy": false, "hipster": false, "divey": false, "touristy": false, "trendy": false, "upscale": false, "casual": false}, "RestaurantsTakeOut": true, "GoodForKids": true, "WheelchairAccessible": true, "BusinessParking": {"garage": false, "street": false, "validated": false, "lot": false, "valet": false}}, "categories": ["Restaurants", "Chinese"], "hours": {"Monday": "10:45-21:30", "Tuesday": "10:45-21:45", "Friday": "10:45-22:30", "Wednesday": "10:45-21:45", "Thursday": "10:45-21:45", "Sunday": "10:45-22:30", "Saturday": "10:30-22:30"}}, {"business_id": "zI4DTA_uiYmdLiGirl3ylA", "name": "Guacamole's Mexican Grill", "neighborhood": "", "address": "1101 Union Rd", "city": "Gastonia", "state": "NC", "postal_code": "28054", "latitude": 35.249113, "longitude": -81.1755079, "stars": 4.0, "review_count": 62, "is_open": 1, "attributes": {"RestaurantsTableService": true, "GoodForMeal": {"dessert": false, "latenight": false, "lunch": true, "dinner": false, "breakfast": false, "brunch": false}, "Alcohol": "beer_and_wine", "Caters": true, "HasTV": true, "RestaurantsGoodForGroups": true, "NoiseLevel": "quiet", "WiFi": "no", "RestaurantsAttire": "casual", "RestaurantsReservations": true, "OutdoorSeating": false, "BusinessAcceptsCreditCards": true, "RestaurantsPriceRange2": 2, "BikeParking": true, "RestaurantsDelivery": false, "Ambience": {"romantic": false, "intimate": false, "classy": false, "hipster": false, "divey": false, "touristy": false, "trendy": false, "upscale": false, "casual": false}, "RestaurantsTakeOut": true, "GoodForKids": true, "BusinessParking": {"garage": false, "street": false, "validated": false, "lot": false, "valet": false}}, "categories": ["Restaurants", "Mexican"], "hours": {"Monday": "11:00-21:00", "Tuesday": "11:00-21:00", "Friday": "11:00-21:30", "Wednesday": "11:00-21:00", "Thursday": "11:00-21:00", "Sunday": "11:00-21:00", "Saturday": "11:00-21:30"}}, {"business_id": "wMNDGq6c5iN9tiIplpfjhg", "name": "Tres Pesos Bar and Grill", "neighborhood": "", "address": "1414 E Franklin Blvd", "city": "Gastonia", "state": "NC", "postal_code": "28054", "latitude": 35.2626926, "longitude": -81.1551522, "stars": 3.5, "review_count": 13, "is_open": 1, "attributes": {"GoodForMeal": {"dessert": false, "latenight": false, "lunch": false, "dinner": false, "breakfast": false, "brunch": false}, "HasTV": true, "RestaurantsGoodForGroups": false, "RestaurantsAttire": "casual", "RestaurantsReservations": false, "BusinessAcceptsCreditCards": true, "RestaurantsPriceRange2": 1, "RestaurantsDelivery": false, "Ambience": {"romantic": false, "intimate": false, "classy": false, "hipster": false, "divey": false, "touristy": false, "trendy": false, "upscale": false, "casual": false}, "RestaurantsTakeOut": true, "GoodForKids": true}, "categories": ["Mexican", "Restaurants"], "hours": {}}, {"business_id": "q5dP4v79O4hWSbA5e8DPFw", "name": "KFC", "neighborhood": "", "address": "503 N. New Hope Road & I-85", "city": "Gastonia", "state": "NC", "postal_code": "28054", "latitude": 35.2704110125, "longitude": -81.1498533674, "stars": 2.5, "review_count": 3, "is_open": 1, "attributes": {"Caters": true, "GoodForKids": true, "WiFi": "free", "RestaurantsReservations": false, "BusinessAcceptsCreditCards": true, "RestaurantsDelivery": false, "RestaurantsGoodForGroups": false}, "categories": ["Fast Food", "Restaurants", "American (New)"], "hours": {"Monday": "10:00-22:00", "Tuesday": "10:00-22:00", "Friday": "10:00-22:00", "Wednesday": "10:00-22:00", "Thursday": "10:00-22:00", "Sunday": "10:00-22:00", "Saturday": "10:00-22:00"}}, {"business_id": "_5S-0t10CgqKuMW6yiklHQ", "name": "Los Arcos", "neighborhood": "", "address": "1525 N Chester St", "city": "Gastonia", "state": "NC", "postal_code": "28052", "latitude": 35.280371, "longitude": -81.188601, "stars": 3.5, "review_count": 17, "is_open": 1, "attributes": {"GoodForMeal": {"dessert": false, "latenight": false, "lunch": false, "dinner": false, "breakfast": false, "brunch": false}, "Alcohol": "full_bar", "HasTV": true, "RestaurantsGoodForGroups": true, "NoiseLevel": "average", "RestaurantsAttire": "casual", "RestaurantsReservations": false, "OutdoorSeating": false, "BusinessAcceptsCreditCards": true, "RestaurantsPriceRange2": 2, "RestaurantsDelivery": false, "Ambience": {"romantic": false, "intimate": false, "classy": false, "hipster": false, "divey": false, "touristy": false, "trendy": false, "upscale": false, "casual": false}, "RestaurantsTakeOut": true, "GoodForKids": true, "BusinessParking": {"garage": false, "street": false, "validated": false, "lot": false, "valet": false}}, "categories": ["Mexican", "Restaurants"], "hours": {"Monday": "11:00-21:30", "Tuesday": "11:00-21:30", "Friday": "11:00-22:00", "Wednesday": "11:00-21:30", "Thursday": "11:00-21:30", "Sunday": "11:00-21:30", "Saturday": "11:00-22:00"}}, {"business_id": "9BsukC2Q4LHt35yMGwNW4w", "name": "McDonald's", "neighborhood": "", "address": "2115 Union Rd", "city": "Gastonia", "state": "NC", "postal_code": "28054", "latitude": 35.233258, "longitude": -81.170447, "stars": 2.0, "review_count": 5, "is_open": 1, "attributes": {"HasTV": true, "GoodForKids": false, "RestaurantsAttire": "casual", "RestaurantsReservations": false, "BusinessAcceptsCreditCards": true, "RestaurantsPriceRange2": 1, "RestaurantsDelivery": false, "RestaurantsTakeOut": true, "RestaurantsGoodForGroups": false}, "categories": ["Restaurants", "Fast Food", "Fast Food"], "hours": {}}, {"business_id": "xgqV-EAOOQJ0L_I-K6nXMg", "name": "The Rock House Tavern, Billiards and Cafe", "neighborhood": "", "address": "2699 Aberdeen Blvd", "city": "Gastonia", "state": "NC", "postal_code": "28054", "latitude": 35.268454, "longitude": -81.131011, "stars": 3.0, "review_count": 11, "is_open": 1, "attributes": {"Alcohol": "full_bar", "HasTV": true, "NoiseLevel": "average", "RestaurantsAttire": "casual", "BusinessAcceptsCreditCards": true, "Music": {"dj": true, "background_music": false, "no_music": false, "karaoke": true, "live": true, "video": false, "jukebox": false}, "Ambience": {"romantic": false, "intimate": false, "classy": false, "hipster": false, "divey": false, "touristy": false, "trendy": false, "upscale": false, "casual": false}, "RestaurantsGoodForGroups": true, "WiFi": "free", "RestaurantsReservations": false, "RestaurantsTableService": true, "RestaurantsTakeOut": true, "GoodForKids": false, "HappyHour": true, "GoodForDancing": true, "BikeParking": true, "OutdoorSeating": true, "RestaurantsPriceRange2": 1, "RestaurantsDelivery": false, "BestNights": {"monday": false, "tuesday": false, "friday": true, "wednesday": true, "thursday": false, "sunday": false, "saturday": true}, "GoodForMeal": {"dessert": false, "latenight": false, "lunch": false, "dinner": false, "breakfast": false, "brunch": false}, "BusinessParking": {"garage": false, "street": false, "validated": false, "lot": false, "valet": false}, "CoatCheck": false, "Smoking": "outdoor"}, "categories": ["American (New)", "Arts & Entertainment", "Sports Bars", "Restaurants", "Nightlife", "Music Venues", "Bars"], "hours": {"Monday": "16:00-2:00", "Tuesday": "16:00-2:00", "Friday": "16:00-2:00", "Wednesday": "16:00-2:00", "Thursday": "16:00-2:00", "Sunday": "12:00-2:00", "Saturday": "16:00-2:00"}}, {"business_id": "DFp_5lZQt91lNwzWYKbCvg", "name": "Waffle House", "neighborhood": "", "address": "1845 Remount Rd", "city": "Gastonia", "state": "NC", "postal_code": "28054", "latitude": 35.269236, "longitude": -81.14666, "stars": 3.0, "review_count": 12, "is_open": 1, "attributes": {"GoodForMeal": {"dessert": false, "latenight": false, "lunch": false, "dinner": false, "breakfast": false, "brunch": false}, "HasTV": false, "RestaurantsGoodForGroups": false, "RestaurantsAttire": "casual", "RestaurantsReservations": false, "OutdoorSeating": false, "BusinessAcceptsCreditCards": true, "RestaurantsPriceRange2": 1, "BikeParking": true, "RestaurantsDelivery": false, "Ambience": {"romantic": false, "intimate": false, "classy": false, "hipster": false, "divey": false, "touristy": false, "trendy": false, "upscale": false, "casual": false}, "RestaurantsTakeOut": true, "GoodForKids": true}, "categories": ["Diners", "American (Traditional)", "Breakfast & Brunch", "Restaurants"], "hours": {"Monday": "0:00-0:00", "Tuesday": "0:00-0:00", "Friday": "0:00-0:00", "Wednesday": "0:00-0:00", "Thursday": "0:00-0:00", "Sunday": "0:00-0:00", "Saturday": "0:00-0:00"}}, {"business_id": "L5OKTwehIhwFOoN9lZmreg", "name": "Bantam Chef Pizza", "neighborhood": "", "address": "3033 Union Rd", "city": "Gastonia", "state": "NC", "postal_code": "28056", "latitude": 35.2141598412, "longitude": -81.1679178849, "stars": 4.0, "review_count": 4, "is_open": 1, "attributes": {}, "categories": ["Pizza", "Restaurants", "Fast Food"], "hours": {}}, {"business_id": "lR4ybrBnCkWI-BMeDrJwFQ", "name": "Milano Italian Restaurant", "neighborhood": "", "address": "904 S New Hope Rd", "city": "Gastonia", "state": "NC", "postal_code": "28054", "latitude": 35.252707, "longitude": -81.146047, "stars": 2.5, "review_count": 31, "is_open": 1, "attributes": {"RestaurantsTableService": true, "GoodForMeal": {"dessert": false, "latenight": false, "lunch": true, "dinner": true, "breakfast": false, "brunch": false}, "Alcohol": "full_bar", "Caters": true, "HasTV": true, "RestaurantsGoodForGroups": true, "NoiseLevel": "average", "WiFi": "no", "RestaurantsAttire": "casual", "RestaurantsReservations": true, "OutdoorSeating": false, "BusinessAcceptsCreditCards": true, "RestaurantsPriceRange2": 2, "BikeParking": false, "RestaurantsDelivery": false, "Ambience": {"romantic": false, "intimate": false, "classy": false, "hipster": false, "divey": false, "touristy": false, "trendy": false, "upscale": false, "casual": false}, "RestaurantsTakeOut": true, "GoodForKids": true, "WheelchairAccessible": true, "BusinessParking": {"garage": false, "street": false, "validated": false, "lot": true, "valet": false}}, "categories": ["Restaurants", "Italian"], "hours": {"Tuesday": "11:00-22:00", "Friday": "11:00-22:00", "Wednesday": "11:00-22:00", "Thursday": "11:00-22:00", "Sunday": "11:00-22:00", "Saturday": "12:00-22:00"}}, {"business_id": "DoCnI75tpJYvlojTMYs2tg", "name": "Shane's Rib Shack", "neighborhood": "", "address": "3660 E Franklin Blvd, Ste 10", "city": "Gastonia", "state": "NC", "postal_code": "28056", "latitude": 35.2600588844, "longitude": -81.1151456664, "stars": 4.0, "review_count": 24, "is_open": 1, "attributes": {"RestaurantsTableService": false, "GoodForMeal": {"dessert": false, "latenight": false, "lunch": true, "dinner": false, "breakfast": false, "brunch": false}, "Alcohol": "none", "Caters": true, "HasTV": true, "RestaurantsGoodForGroups": true, "NoiseLevel": "average", "WiFi": "no", "RestaurantsAttire": "casual", "RestaurantsReservations": false, "OutdoorSeating": true, "BusinessAcceptsCreditCards": true, "RestaurantsPriceRange2": 2, "BikeParking": true, "RestaurantsDelivery": false, "Ambience": {"romantic": false, "intimate": false, "classy": false, "hipster": false, "divey": false, "touristy": false, "trendy": false, "upscale": false, "casual": true}, "RestaurantsTakeOut": true, "GoodForKids": true, "BusinessParking": {"garage": false, "street": false, "validated": false, "lot": false, "valet": false}}, "categories": ["Barbeque", "Restaurants", "Caterers", "Event Planning & Services"], "hours": {"Monday": "11:00-21:00", "Tuesday": "11:00-21:00", "Friday": "11:00-22:00", "Wednesday": "11:00-21:00", "Thursday": "11:00-21:00", "Sunday": "11:00-21:00", "Saturday": "11:00-22:00"}}, {"business_id": "3JekfARgFuMeLTMcOpgqyQ", "name": "Tony's Ice Cream Company", "neighborhood": "", "address": "604 E Franklin Blvd", "city": "Gastonia", "state": "NC", "postal_code": "28054", "latitude": 35.2625498, "longitude": -81.1732224, "stars": 4.5, "review_count": 102, "is_open": 1, "attributes": {"RestaurantsTableService": false, "GoodForMeal": {"dessert": false, "latenight": false, "lunch": true, "dinner": false, "breakfast": false, "brunch": false}, "Alcohol": "none", "Caters": false, "HasTV": true, "RestaurantsGoodForGroups": true, "NoiseLevel": "average", "WiFi": "no", "RestaurantsAttire": "casual", "RestaurantsReservations": false, "OutdoorSeating": false, "BusinessAcceptsCreditCards": true, "RestaurantsPriceRange2": 1, "BikeParking": true, "RestaurantsDelivery": false, "Ambience": {"romantic": false, "intimate": false, "classy": false, "hipster": false, "divey": false, "touristy": false, "trendy": false, "upscale": false, "casual": true}, "RestaurantsTakeOut": true, "GoodForKids": true, "WheelchairAccessible": true, "BusinessParking": {"garage": false, "street": false, "validated": false, "lot": true, "valet": false}}, "categories": ["Desserts", "Fast Food", "Ice Cream & Frozen Yogurt", "Restaurants", "Food"], "hours": {"Monday": "7:00-22:00", "Tuesday": "7:00-22:00", "Friday": "7:00-22:00", "Wednesday": "7:00-22:00", "Thursday": "7:00-22:00", "Sunday": "10:00-22:00", "Saturday": "7:00-22:00"}}, {"business_id": "-QC71Wuh0TyJI0RAZ3d0Iw", "name": "Chipotle Mexican Grill", "neighborhood": "", "address": "2501 E Franklin Blvd", "city": "Gastonia", "state": "NC", "postal_code": "28056", "latitude": 35.2601488916, "longitude": -81.1331162229, "stars": 3.0, "review_count": 20, "is_open": 1, "attributes": {"RestaurantsTableService": false, "GoodForMeal": {"dessert": false, "latenight": false, "lunch": true, "dinner": false, "breakfast": false, "brunch": false}, "Alcohol": "none", "Caters": true, "HasTV": false, "RestaurantsGoodForGroups": true, "NoiseLevel": "average", "WiFi": "no", "RestaurantsAttire": "casual", "RestaurantsReservations": false, "OutdoorSeating": true, "BusinessAcceptsCreditCards": true, "RestaurantsPriceRange2": 1, "BikeParking": false, "RestaurantsDelivery": false, "Ambience": {"romantic": false, "intimate": false, "classy": false, "hipster": false, "divey": false, "touristy": false, "trendy": false, "upscale": false, "casual": false}, "RestaurantsTakeOut": true, "GoodForKids": true, "DriveThru": false, "BusinessParking": {"garage": false, "street": false, "validated": false, "lot": false, "valet": false}}, "categories": ["Fast Food", "Mexican", "Restaurants"], "hours": {"Monday": "10:45-22:00", "Tuesday": "10:45-22:00", "Friday": "10:45-22:00", "Wednesday": "10:45-22:00", "Thursday": "10:45-22:00", "Sunday": "10:45-22:00", "Saturday": "10:45-22:00"}}, {"business_id": "9Z6_9bDxBQCt5Gfo6frXzQ", "name": "The Round Bistro", "neighborhood": "", "address": "2609 S New Hope Rd", "city": "Gastonia", "state": "NC", "postal_code": "28056", "latitude": 35.241121, "longitude": -81.122147, "stars": 3.5, "review_count": 47, "is_open": 1, "attributes": {"RestaurantsTableService": true, "GoodForMeal": {"dessert": false, "latenight": false, "lunch": true, "dinner": true, "breakfast": false, "brunch": false}, "DogsAllowed": true, "Alcohol": "full_bar", "Caters": true, "HasTV": true, "RestaurantsGoodForGroups": true, "NoiseLevel": "average", "WiFi": "free", "RestaurantsAttire": "casual", "RestaurantsReservations": true, "OutdoorSeating": true, "BusinessAcceptsCreditCards": true, "RestaurantsPriceRange2": 2, "BikeParking": true, "RestaurantsDelivery": false, "Ambience": {"romantic": false, "intimate": false, "classy": false, "hipster": false, "divey": false, "touristy": false, "trendy": false, "upscale": false, "casual": true}, "RestaurantsTakeOut": true, "GoodForKids": true, "WheelchairAccessible": true, "BusinessParking": {"garage": false, "street": false, "validated": false, "lot": true, "valet": false}}, "categories": ["Restaurants", "American (Traditional)"], "hours": {"Monday": "11:00-22:00", "Tuesday": "11:00-22:00", "Friday": "11:00-23:00", "Wednesday": "11:00-22:00", "Thursday": "11:00-22:00", "Sunday": "11:00-21:00", "Saturday": "11:00-23:00"}}, {"business_id": "1D2uwDs3xKKUdfECxzq8nw", "name": "Jimmy John's", "neighborhood": "", "address": "2080 E Franklin Blvd", "city": "Gastonia", "state": "NC", "postal_code": "28054", "latitude": 35.261612, "longitude": -81.1421688, "stars": 3.5, "review_count": 9, "is_open": 1, "attributes": {"RestaurantsTableService": false, "GoodForMeal": {"dessert": false, "latenight": false, "lunch": true, "dinner": false, "breakfast": false, "brunch": false}, "Alcohol": "none", "Caters": true, "HasTV": true, "RestaurantsGoodForGroups": true, "NoiseLevel": "quiet", "WiFi": "no", "RestaurantsAttire": "casual", "RestaurantsReservations": false, "OutdoorSeating": true, "BusinessAcceptsCreditCards": true, "RestaurantsPriceRange2": 1, "BikeParking": true, "RestaurantsDelivery": true, "Ambience": {"romantic": false, "intimate": false, "classy": false, "hipster": false, "divey": false, "touristy": false, "trendy": false, "upscale": false, "casual": false}, "RestaurantsTakeOut": true, "GoodForKids": true, "BusinessParking": {"garage": false, "street": false, "validated": false, "lot": false, "valet": false}}, "categories": ["Food Delivery Services", "Food", "Fast Food", "Restaurants"], "hours": {}}, {"business_id": "mAZLbq-BKmFurJRPZg6Cmg", "name": "Shogun", "neighborhood": "", "address": "306 E Garrison Blvd", "city": "Gastonia", "state": "NC", "postal_code": "28054", "latitude": 35.2540313, "longitude": -81.1784708, "stars": 2.0, "review_count": 16, "is_open": 1, "attributes": {"GoodForMeal": {"dessert": false, "latenight": false, "lunch": false, "dinner": false, "breakfast": false, "brunch": false}, "BusinessParking": {"garage": false, "street": false, "validated": false, "lot": false, "valet": false}, "Caters": false, "HasTV": true, "RestaurantsGoodForGroups": true, "NoiseLevel": "very_loud", "WiFi": "no", "RestaurantsAttire": "casual", "RestaurantsReservations": true, "OutdoorSeating": false, "BusinessAcceptsCreditCards": true, "RestaurantsPriceRange2": 2, "BikeParking": true, "RestaurantsDelivery": false, "Ambience": {"romantic": false, "intimate": false, "classy": false, "hipster": false, "divey": false, "touristy": false, "trendy": false, "upscale": false, "casual": false}, "RestaurantsTakeOut": true, "GoodForKids": true, "RestaurantsTableService": true}, "categories": ["American (New)", "Japanese", "Restaurants", "Japanese"], "hours": {"Monday": "11:30-21:30", "Tuesday": "11:30-21:30", "Friday": "11:30-22:30", "Wednesday": "11:30-21:30", "Thursday": "11:30-21:30", "Sunday": "11:30-21:30", "Saturday": "16:30-22:30"}}, {"business_id": "fvwNREtzrWiqUppypcCr9g", "name": "Zaxby's Chicken Fingers & Buffalo Wings", "neighborhood": "", "address": "3460 E Franklin Blvd", "city": "Gastonia", "state": "NC", "postal_code": "28056", "latitude": 35.258516, "longitude": -81.1186053, "stars": 3.0, "review_count": 7, "is_open": 1, "attributes": {"GoodForMeal": {"dessert": false, "latenight": false, "lunch": false, "dinner": false, "breakfast": false, "brunch": false}, "Caters": true, "HasTV": false, "RestaurantsGoodForGroups": true, "WiFi": "free", "RestaurantsAttire": "casual", "RestaurantsReservations": false, "OutdoorSeating": false, "BusinessAcceptsCreditCards": true, "RestaurantsPriceRange2": 1, "BikeParking": false, "RestaurantsDelivery": false, "Ambience": {"romantic": false, "intimate": false, "classy": false, "hipster": false, "divey": false, "touristy": false, "trendy": false, "upscale": false, "casual": false}, "RestaurantsTakeOut": true, "GoodForKids": true, "DriveThru": true}, "categories": ["American (Traditional)", "Restaurants", "American (New)", "Fast Food", "Fast Food"], "hours": {"Monday": "10:30-22:00", "Tuesday": "10:30-22:00", "Friday": "10:30-23:00", "Wednesday": "10:30-22:00", "Thursday": "10:30-22:00", "Sunday": "10:30-22:00", "Saturday": "10:30-23:00"}}, {"business_id": "8Tq8l82FtDyHelc6C8FRzw", "name": "Pancake House", "neighborhood": "", "address": "1700 N Chester St", "city": "Gastonia", "state": "NC", "postal_code": "28052", "latitude": 35.2818742, "longitude": -81.1883519, "stars": 3.5, "review_count": 25, "is_open": 1, "attributes": {"RestaurantsTableService": true, "GoodForMeal": {"dessert": false, "latenight": false, "lunch": false, "dinner": false, "breakfast": true, "brunch": false}, "Alcohol": "none", "Caters": false, "HasTV": false, "RestaurantsGoodForGroups": true, "WiFi": "no", "RestaurantsAttire": "casual", "RestaurantsReservations": false, "OutdoorSeating": false, "BusinessAcceptsCreditCards": true, "RestaurantsPriceRange2": 1, "BikeParking": false, "RestaurantsDelivery": false, "Ambience": {"romantic": false, "intimate": false, "classy": false, "hipster": false, "divey": false, "touristy": false, "trendy": false, "upscale": false, "casual": false}, "RestaurantsTakeOut": true, "GoodForKids": true, "BusinessParking": {"garage": false, "street": false, "validated": false, "lot": false, "valet": false}}, "categories": ["Restaurants", "Fast Food", "Breakfast & Brunch"], "hours": {}}, {"business_id": "hqWNpbCEzt7EzUeWkDqjBA", "name": "Sal's New York Pizzeria", "neighborhood": "", "address": "2211 N New Hope Rd", "city": "Gastonia", "state": "NC", "postal_code": "28054", "latitude": 35.2979628, "longitude": -81.1605714, "stars": 4.0, "review_count": 28, "is_open": 1, "attributes": {"Alcohol": "none", "HasTV": true, "NoiseLevel": "average", "RestaurantsAttire": "casual", "BusinessAcceptsCreditCards": true, "Ambience": {"romantic": false, "intimate": false, "classy": false, "hipster": false, "divey": false, "touristy": false, "trendy": false, "upscale": false, "casual": false}, "RestaurantsGoodForGroups": true, "Caters": true, "WiFi": "free", "RestaurantsReservations": false, "BusinessAcceptsBitcoin": false, "RestaurantsTableService": false, "RestaurantsTakeOut": true, "GoodForKids": true, "WheelchairAccessible": true, "DogsAllowed": false, "BikeParking": true, "OutdoorSeating": false, "RestaurantsPriceRange2": 1, "RestaurantsDelivery": true, "GoodForMeal": {"dessert": false, "latenight": false, "lunch": true, "dinner": true, "breakfast": false, "brunch": false}, "BusinessParking": {"garage": false, "street": false, "validated": false, "lot": true, "valet": false}}, "categories": ["Pizza", "Caterers", "Restaurants", "Italian", "Fast Food", "Event Planning & Services"], "hours": {"Monday": "11:00-21:00", "Tuesday": "11:00-21:00", "Friday": "11:00-22:00", "Wednesday": "11:00-21:00", "Thursday": "11:00-22:00", "Sunday": "16:00-21:00", "Saturday": "11:00-22:00"}}, {"business_id": "MYKcCSMnRSdU_jfdlZxU5g", "name": "RG's West End Grill", "neighborhood": "", "address": "901 Bessemer City Rd", "city": "Gastonia", "state": "NC", "postal_code": "28052", "latitude": 35.268212, "longitude": -81.222781, "stars": 3.5, "review_count": 5, "is_open": 1, "attributes": {"GoodForMeal": {"dessert": false, "latenight": false, "lunch": false, "dinner": false, "breakfast": false, "brunch": false}, "Alcohol": "none", "RestaurantsGoodForGroups": false, "NoiseLevel": "average", "RestaurantsAttire": "casual", "RestaurantsReservations": false, "OutdoorSeating": false, "BusinessAcceptsCreditCards": true, "RestaurantsPriceRange2": 1, "BikeParking": false, "RestaurantsDelivery": false, "Ambience": {"romantic": false, "intimate": false, "classy": false, "hipster": false, "divey": false, "touristy": false, "trendy": false, "upscale": false, "casual": false}, "RestaurantsTakeOut": true, "GoodForKids": true, "BusinessParking": {"garage": false, "street": false, "validated": false, "lot": false, "valet": false}}, "categories": ["Fast Food", "Restaurants", "Fast Food", "Breakfast & Brunch"], "hours": {"Monday": "6:00-15:00", "Tuesday": "6:00-15:00", "Friday": "6:00-15:00", "Wednesday": "6:00-15:00", "Thursday": "6:00-15:00", "Saturday": "7:00-11:00"}}, {"business_id": "y_2ZDekyaciTuNeJd60u9A", "name": "Fiesta Margarita", "neighborhood": "", "address": "1414 E Franklin Blvd", "city": "Gastonia", "state": "NC", "postal_code": "28054", "latitude": 35.262648, "longitude": -81.1551712, "stars": 3.0, "review_count": 5, "is_open": 1, "attributes": {"RestaurantsTableService": true, "GoodForMeal": {"dessert": false, "latenight": false, "lunch": true, "dinner": true, "breakfast": false, "brunch": false}, "Alcohol": "full_bar", "Caters": false, "HasTV": true, "RestaurantsGoodForGroups": true, "NoiseLevel": "average", "WiFi": "no", "RestaurantsAttire": "casual", "RestaurantsReservations": false, "OutdoorSeating": true, "BusinessAcceptsCreditCards": true, "RestaurantsPriceRange2": 1, "BikeParking": false, "RestaurantsDelivery": false, "Ambience": {"romantic": false, "intimate": false, "classy": false, "hipster": false, "divey": false, "touristy": false, "trendy": false, "upscale": false, "casual": false}, "RestaurantsTakeOut": true, "GoodForKids": true, "WheelchairAccessible": true, "BusinessParking": {"garage": false, "street": false, "validated": false, "lot": true, "valet": false}}, "categories": ["Restaurants", "Mexican"], "hours": {}}, {"business_id": "9F9ZNJW8AYhLBZ4eGhBfAA", "name": "The Brass Monkey", "neighborhood": "", "address": "3826 S New Hope Rd", "city": "Gastonia", "state": "NC", "postal_code": "28056", "latitude": 35.2206765802, "longitude": -81.0959599166, "stars": 3.5, "review_count": 3, "is_open": 1, "attributes": {"GoodForKids": true, "RestaurantsReservations": false, "BusinessAcceptsCreditCards": true, "RestaurantsDelivery": true, "RestaurantsTakeOut": true, "RestaurantsGoodForGroups": true}, "categories": ["Seafood", "Restaurants", "Italian"], "hours": {"Tuesday": "11:00-22:00", "Friday": "11:00-22:30", "Wednesday": "11:00-22:00", "Thursday": "11:00-22:00", "Sunday": "11:00-21:30", "Saturday": "11:00-22:30"}}, {"business_id": "XuNcZFG3zzchWfwP_T1YJw", "name": "Market Street Buffet & Bakery", "neighborhood": "", "address": "2525 S York Rd", "city": "Gastonia", "state": "NC", "postal_code": "28052", "latitude": 35.2308929, "longitude": -81.1967102, "stars": 3.0, "review_count": 6, "is_open": 1, "attributes": {"GoodForMeal": {"dessert": false, "latenight": false, "lunch": false, "dinner": false, "breakfast": false, "brunch": false}, "HasTV": false, "RestaurantsGoodForGroups": true, "WiFi": "no", "RestaurantsAttire": "casual", "RestaurantsReservations": false, "OutdoorSeating": false, "BusinessAcceptsCreditCards": true, "RestaurantsPriceRange2": 2, "BikeParking": true, "RestaurantsDelivery": false, "Ambience": {"romantic": false, "intimate": false, "classy": false, "hipster": false, "divey": false, "touristy": false, "trendy": false, "upscale": false, "casual": false}, "RestaurantsTakeOut": true, "GoodForKids": true}, "categories": ["Food", "Buffets", "Bakeries", "Restaurants"], "hours": {}}, {"business_id": "K-WRtYhsiFAYC-ryoyP8wA", "name": "McDonald's", "neighborhood": "", "address": "1500 E Franklin Blvd", "city": "Gastonia", "state": "NC", "postal_code": "28054", "latitude": 35.2627409, "longitude": -81.1534792, "stars": 2.5, "review_count": 5, "is_open": 1, "attributes": {"GoodForMeal": {"dessert": false, "latenight": false, "lunch": false, "dinner": false, "breakfast": false, "brunch": false}, "HasTV": true, "RestaurantsGoodForGroups": true, "RestaurantsAttire": "casual", "RestaurantsReservations": false, "BusinessAcceptsCreditCards": true, "RestaurantsPriceRange2": 1, "BikeParking": true, "RestaurantsDelivery": false, "Ambience": {"romantic": false, "intimate": false, "classy": false, "hipster": false, "divey": false, "touristy": false, "trendy": false, "upscale": false, "casual": false}, "RestaurantsTakeOut": true, "GoodForKids": true, "DriveThru": true}, "categories": ["Fast Food", "Fast Food", "Hot Dogs", "Restaurants"], "hours": {}}, {"business_id": "xgFz0RUr_4xlk84kLJOWaA", "name": "Bellacino's Pizza and Grinders", "neighborhood": "", "address": "1709 Neal Hawkins Rd", "city": "Gastonia", "state": "NC", "postal_code": "28056", "latitude": 35.2160476, "longitude": -81.1693222, "stars": 4.0, "review_count": 21, "is_open": 1, "attributes": {"GoodForMeal": {"dessert": false, "latenight": false, "lunch": true, "dinner": false, "breakfast": false, "brunch": false}, "Alcohol": "none", "Caters": true, "HasTV": true, "RestaurantsGoodForGroups": true, "NoiseLevel": "average", "WiFi": "free", "RestaurantsAttire": "casual", "RestaurantsReservations": false, "OutdoorSeating": false, "BusinessAcceptsCreditCards": true, "RestaurantsPriceRange2": 1, "RestaurantsTableService": false, "RestaurantsDelivery": false, "Ambience": {"romantic": false, "intimate": false, "classy": false, "hipster": false, "divey": false, "touristy": false, "trendy": false, "upscale": false, "casual": true}, "RestaurantsTakeOut": true, "GoodForKids": true, "BusinessParking": {"garage": false, "street": false, "validated": false, "lot": false, "valet": false}}, "categories": ["Pizza", "Restaurants"], "hours": {}}, {"business_id": "saljMuo0eSMWy-C7yjKaRA", "name": "Ray's Country Smokehouse & Grill", "neighborhood": "", "address": "219 S Broad St", "city": "Gastonia", "state": "NC", "postal_code": "28052", "latitude": 35.2611594, "longitude": -81.1786634, "stars": 4.0, "review_count": 27, "is_open": 1, "attributes": {"RestaurantsTableService": true, "GoodForMeal": {"dessert": false, "latenight": false, "lunch": false, "dinner": false, "breakfast": false, "brunch": false}, "Alcohol": "full_bar", "Caters": true, "HasTV": true, "RestaurantsGoodForGroups": true, "NoiseLevel": "average", "RestaurantsAttire": "casual", "RestaurantsReservations": false, "BusinessAcceptsCreditCards": true, "RestaurantsPriceRange2": 2, "BikeParking": true, "Ambience": {"romantic": false, "intimate": false, "classy": false, "hipster": false, "divey": false, "touristy": false, "trendy": false, "upscale": false, "casual": false}, "RestaurantsTakeOut": true, "GoodForKids": true, "BusinessParking": {"garage": false, "street": false, "validated": false, "lot": true, "valet": false}}, "categories": ["American (Traditional)", "Food", "Barbeque", "Smokehouse", "Restaurants"], "hours": {"Monday": "11:00-20:00", "Tuesday": "11:00-20:00", "Friday": "11:00-21:00", "Wednesday": "11:00-20:00", "Thursday": "11:00-20:00", "Saturday": "11:00-21:00"}}, {"business_id": "zL7ur9zT-WIUTHJrrh_xSg", "name": "Five Guys", "neighborhood": "", "address": "2212 E Franklin Blvd", "city": "Gastonia", "state": "NC", "postal_code": "28052", "latitude": 35.262099, "longitude": -81.140282, "stars": 4.0, "review_count": 20, "is_open": 1, "attributes": {"RestaurantsTableService": false, "GoodForMeal": {"dessert": false, "latenight": false, "lunch": true, "dinner": false, "breakfast": false, "brunch": false}, "Alcohol": "none", "Caters": false, "HasTV": false, "RestaurantsGoodForGroups": true, "NoiseLevel": "average", "WiFi": "free", "RestaurantsAttire": "casual", "RestaurantsReservations": false, "OutdoorSeating": true, "BusinessAcceptsCreditCards": true, "RestaurantsPriceRange2": 2, "BikeParking": true, "RestaurantsDelivery": false, "Ambience": {"romantic": false, "intimate": false, "classy": false, "hipster": false, "divey": false, "touristy": false, "trendy": false, "upscale": false, "casual": false}, "RestaurantsTakeOut": true, "GoodForKids": true, "DriveThru": false, "BusinessParking": {"garage": false, "street": false, "validated": false, "lot": true, "valet": false}}, "categories": ["Fast Food", "Restaurants", "American (New)", "Fast Food", "Fast Food"], "hours": {"Monday": "11:00-22:00", "Tuesday": "11:00-22:00", "Friday": "11:00-22:00", "Wednesday": "11:00-22:00", "Thursday": "11:00-22:00", "Sunday": "11:00-22:00", "Saturday": "11:00-22:00"}}, {"business_id": "X7M-9RcELeAk2sbJhwtgsw", "name": "LongHorn Steakhouse", "neighborhood": "", "address": "405 Cox Rd", "city": "Gastonia", "state": "NC", "postal_code": "28054", "latitude": 35.2619342, "longitude": -81.1342213, "stars": 3.5, "review_count": 24, "is_open": 1, "attributes": {"RestaurantsTableService": true, "GoodForMeal": {"dessert": true, "latenight": false, "lunch": false, "dinner": true, "breakfast": false, "brunch": false}, "DogsAllowed": false, "Alcohol": "full_bar", "Caters": false, "HasTV": true, "RestaurantsGoodForGroups": true, "NoiseLevel": "average", "WiFi": "no", "RestaurantsAttire": "casual", "RestaurantsReservations": false, "OutdoorSeating": false, "BusinessAcceptsCreditCards": true, "RestaurantsPriceRange2": 2, "BikeParking": false, "RestaurantsDelivery": false, "Ambience": {"romantic": false, "intimate": false, "classy": false, "hipster": false, "divey": false, "touristy": false, "trendy": false, "upscale": false, "casual": true}, "RestaurantsTakeOut": true, "GoodForKids": true, "WheelchairAccessible": true, "BusinessParking": {"garage": false, "street": false, "validated": false, "lot": true, "valet": false}}, "categories": ["American (New)", "American (Traditional)", "Restaurants", "Barbeque"], "hours": {"Monday": "11:00-22:00", "Tuesday": "11:00-22:00", "Friday": "11:00-23:00", "Wednesday": "11:00-22:00", "Thursday": "11:00-22:00", "Sunday": "11:00-22:00", "Saturday": "11:00-23:00"}}, {"business_id": "M3JRmY4cyylKtmCw57gSoA", "name": "McAlister's Deli", "neighborhood": "", "address": "411 Cox Rd, Ste 110", "city": "Gastonia", "state": "NC", "postal_code": "28054", "latitude": 35.2635168, "longitude": -81.1340755, "stars": 3.0, "review_count": 17, "is_open": 1, "attributes": {"RestaurantsTableService": false, "GoodForMeal": {"dessert": false, "latenight": false, "lunch": false, "dinner": false, "breakfast": false, "brunch": true}, "Alcohol": "none", "Caters": true, "HasTV": false, "RestaurantsGoodForGroups": true, "NoiseLevel": "average", "WiFi": "free", "RestaurantsAttire": "casual", "RestaurantsReservations": false, "OutdoorSeating": true, "BusinessAcceptsCreditCards": true, "RestaurantsPriceRange2": 2, "BikeParking": true, "RestaurantsDelivery": false, "Ambience": {"romantic": false, "intimate": false, "classy": false, "hipster": false, "divey": false, "touristy": false, "trendy": false, "upscale": false, "casual": false}, "RestaurantsTakeOut": true, "GoodForKids": true, "BusinessParking": {"garage": false, "street": false, "validated": false, "lot": true, "valet": false}}, "categories": ["Delis", "Fast Food", "Restaurants", "Fast Food"], "hours": {"Monday": "10:30-22:00", "Tuesday": "10:30-22:00", "Friday": "10:30-22:30", "Wednesday": "10:30-22:00", "Thursday": "10:30-22:00", "Sunday": "10:30-22:00", "Saturday": "10:30-22:30"}}, {"business_id": "zElnVlq5To9UoNw4KmoYWQ", "name": "Cicis", "neighborhood": "", "address": "3746 E Franklin Blvd", "city": "Gastonia", "state": "NC", "postal_code": "28056", "latitude": 35.2593786197, "longitude": -81.1130197521, "stars": 1.5, "review_count": 7, "is_open": 1, "attributes": {"GoodForMeal": {"dessert": false, "latenight": false, "lunch": false, "dinner": false, "breakfast": false, "brunch": false}, "Alcohol": "none", "RestaurantsGoodForGroups": true, "RestaurantsAttire": "casual", "RestaurantsReservations": false, "BusinessAcceptsCreditCards": true, "RestaurantsPriceRange2": 1, "RestaurantsDelivery": false, "RestaurantsTakeOut": true, "GoodForKids": true, "BusinessParking": {"garage": false, "street": false, "validated": false, "lot": false, "valet": false}}, "categories": ["Buffets", "American (Traditional)", "Pizza", "Restaurants"], "hours": {"Monday": "11:00-22:00", "Tuesday": "11:00-22:00", "Friday": "11:00-23:00", "Wednesday": "11:00-22:00", "Thursday": "11:00-22:00", "Sunday": "11:00-22:00", "Saturday": "11:00-23:00"}}, {"business_id": "u0hZsa4CXeRDy2R4-dyJvg", "name": "Buffalo Wild Wings", "neighborhood": "", "address": "422 Cox Rd.", "city": "Gastonia", "state": "NC", "postal_code": "28054", "latitude": 35.2629001, "longitude": -81.130743, "stars": 2.0, "review_count": 32, "is_open": 1, "attributes": {"Alcohol": "full_bar", "HasTV": true, "NoiseLevel": "very_loud", "RestaurantsAttire": "casual", "BusinessAcceptsCreditCards": true, "Music": {"dj": false, "background_music": false, "no_music": false, "karaoke": false, "live": false, "video": false, "jukebox": false}, "Ambience": {"romantic": false, "intimate": false, "classy": false, "hipster": false, "divey": false, "touristy": false, "trendy": false, "upscale": false, "casual": true}, "RestaurantsGoodForGroups": true, "Caters": true, "WiFi": "free", "RestaurantsReservations": false, "RestaurantsTableService": true, "RestaurantsTakeOut": true, "GoodForKids": true, "HappyHour": true, "GoodForDancing": false, "BikeParking": false, "OutdoorSeating": true, "RestaurantsPriceRange2": 2, "RestaurantsDelivery": false, "BestNights": {"monday": false, "tuesday": true, "friday": false, "wednesday": false, "thursday": false, "sunday": false, "saturday": false}, "GoodForMeal": {"dessert": false, "latenight": false, "lunch": true, "dinner": false, "breakfast": false, "brunch": false}, "BusinessParking": {"garage": false, "street": false, "validated": false, "lot": true, "valet": false}, "CoatCheck": false, "Smoking": "no"}, "categories": ["Nightlife", "Sports Bars", "Bars", "Restaurants", "American (New)", "American (Traditional)"], "hours": {"Monday": "11:00-1:00", "Tuesday": "11:00-1:00", "Friday": "11:00-2:00", "Wednesday": "11:00-1:00", "Thursday": "11:00-1:00", "Sunday": "11:00-0:00", "Saturday": "11:00-2:00"}}, {"business_id": "dnzFLUS1Cw77C1rMUMmegQ", "name": "Cake Me Away Bakery", "neighborhood": "", "address": "1003 Union Rd", "city": "Gastonia", "state": "NC", "postal_code": "28054", "latitude": 35.2505392, "longitude": -81.176099, "stars": 4.5, "review_count": 6, "is_open": 1, "attributes": {"BusinessAcceptsCreditCards": true, "RestaurantsPriceRange2": 1, "BusinessParking": {"garage": false, "street": false, "validated": false, "lot": false, "valet": false}, "BikeParking": true, "RestaurantsDelivery": false}, "categories": ["Bakeries", "Food", "Patisserie/Cake Shop"], "hours": {"Monday": "11:00-17:00", "Tuesday": "11:00-18:00", "Friday": "11:00-18:00", "Wednesday": "11:00-18:00", "Thursday": "11:00-18:00", "Saturday": "9:00-17:00"}}, {"business_id": "qD2XkKW6yOcdfszjVtlpVg", "name": "2000 Cafe", "neighborhood": "", "address": "3870 W Franklin Blvd", "city": "Gastonia", "state": "NC", "postal_code": "28052", "latitude": 35.2573468, "longitude": -81.2557204, "stars": 4.0, "review_count": 7, "is_open": 1, "attributes": {"GoodForMeal": {"dessert": false, "latenight": false, "lunch": true, "dinner": false, "breakfast": false, "brunch": false}, "Alcohol": "none", "HasTV": false, "RestaurantsGoodForGroups": true, "NoiseLevel": "loud", "WiFi": "no", "RestaurantsAttire": "casual", "RestaurantsReservations": false, "OutdoorSeating": false, "BusinessAcceptsCreditCards": true, "RestaurantsPriceRange2": 1, "RestaurantsTableService": false, "RestaurantsDelivery": false, "Ambience": {"romantic": false, "intimate": false, "classy": false, "hipster": false, "divey": false, "touristy": false, "trendy": false, "upscale": false, "casual": false}, "RestaurantsTakeOut": true, "GoodForKids": true, "BusinessParking": {"garage": false, "street": false, "validated": false, "lot": false, "valet": false}}, "categories": ["Chinese", "Restaurants"], "hours": {}}, {"business_id": "fwcJV_PI-u2EV-ni5G15ww", "name": "O'Charley's Restaurant & Bar", "neighborhood": "", "address": "1601 East Franklin Blvd", "city": "Gastonia", "state": "NC", "postal_code": "28054", "latitude": 35.261366, "longitude": -81.151555, "stars": 3.0, "review_count": 27, "is_open": 1, "attributes": {"RestaurantsTableService": true, "GoodForMeal": {"dessert": false, "latenight": false, "lunch": false, "dinner": false, "breakfast": false, "brunch": true}, "Alcohol": "full_bar", "Caters": false, "HasTV": true, "RestaurantsGoodForGroups": true, "NoiseLevel": "average", "WiFi": "free", "RestaurantsAttire": "casual", "RestaurantsReservations": false, "OutdoorSeating": false, "BusinessAcceptsCreditCards": true, "RestaurantsPriceRange2": 2, "WheelchairAccessible": true, "BikeParking": false, "RestaurantsDelivery": false, "Ambience": {"romantic": false, "intimate": false, "classy": false, "hipster": false, "divey": false, "touristy": false, "trendy": false, "upscale": false, "casual": false}, "RestaurantsTakeOut": true, "GoodForKids": true, "DriveThru": false, "BusinessParking": {"garage": false, "street": false, "validated": false, "lot": false, "valet": false}}, "categories": ["American (Traditional)", "Fast Food", "Restaurants", "Breakfast & Brunch"], "hours": {"Monday": "11:00-22:00", "Tuesday": "11:00-22:00", "Friday": "11:00-23:00", "Wednesday": "11:00-22:00", "Thursday": "11:00-22:00", "Sunday": "10:00-22:00", "Saturday": "11:00-23:00"}}, {"business_id": "S7VVVT1a_fYdTifBrx4_6A", "name": "Ruby Tuesday", "neighborhood": "", "address": "424 Cox Rd", "city": "Gastonia", "state": "NC", "postal_code": "28054", "latitude": 35.2633365237, "longitude": -81.1329684344, "stars": 2.0, "review_count": 19, "is_open": 1, "attributes": {"RestaurantsTableService": true, "GoodForMeal": {"dessert": false, "latenight": false, "lunch": true, "dinner": false, "breakfast": false, "brunch": false}, "Alcohol": "full_bar", "HasTV": true, "RestaurantsGoodForGroups": true, "NoiseLevel": "quiet", "WiFi": "free", "RestaurantsAttire": "casual", "RestaurantsReservations": true, "OutdoorSeating": false, "BusinessAcceptsCreditCards": true, "RestaurantsPriceRange2": 2, "WheelchairAccessible": true, "BikeParking": true, "RestaurantsDelivery": false, "Ambience": {"romantic": false, "intimate": false, "classy": false, "hipster": false, "divey": false, "touristy": false, "trendy": false, "upscale": false, "casual": false}, "RestaurantsTakeOut": true, "GoodForKids": true, "DriveThru": false, "BusinessParking": {"garage": false, "street": false, "validated": false, "lot": false, "valet": false}}, "categories": ["American (Traditional)", "Fast Food", "Restaurants"], "hours": {"Monday": "11:00-22:00", "Tuesday": "11:00-22:00", "Friday": "11:00-22:00", "Wednesday": "11:00-22:00", "Thursday": "11:00-22:00", "Sunday": "11:00-22:00", "Saturday": "11:00-22:00"}}, {"business_id": "48PJznErl0Yj9vGzcb0lwg", "name": "Azteca Family Mexican Restaurant", "neighborhood": "", "address": "1863 W Franklin Blvd", "city": "Gastonia", "state": "NC", "postal_code": "28052", "latitude": 35.259507, "longitude": -81.215327, "stars": 4.0, "review_count": 15, "is_open": 1, "attributes": {"RestaurantsTableService": true, "GoodForMeal": {"dessert": false, "latenight": false, "lunch": true, "dinner": false, "breakfast": false, "brunch": false}, "Alcohol": "full_bar", "HasTV": true, "RestaurantsGoodForGroups": true, "NoiseLevel": "average", "WiFi": "no", "RestaurantsAttire": "casual", "RestaurantsReservations": false, "OutdoorSeating": false, "BusinessAcceptsCreditCards": true, "RestaurantsPriceRange2": 1, "BikeParking": false, "RestaurantsDelivery": false, "Ambience": {"romantic": false, "intimate": false, "classy": false, "hipster": false, "divey": false, "touristy": false, "trendy": false, "upscale": false, "casual": false}, "RestaurantsTakeOut": true, "GoodForKids": true, "BusinessParking": {"garage": false, "street": false, "validated": false, "lot": false, "valet": false}}, "categories": ["Restaurants", "Mexican"], "hours": {"Monday": "11:00-22:30", "Tuesday": "11:00-22:30", "Friday": "11:00-23:00", "Wednesday": "11:00-22:30", "Thursday": "11:00-22:30", "Sunday": "11:00-22:30", "Saturday": "11:00-23:00"}}, {"business_id": "yVhNSbay4kc747Bg88p7pQ", "name": "The Shrimp Boat", "neighborhood": "", "address": "120 S Broad St", "city": "Gastonia", "state": "NC", "postal_code": "28052", "latitude": 35.2630587639, "longitude": -81.1775603495, "stars": 4.0, "review_count": 18, "is_open": 1, "attributes": {"GoodForMeal": {"dessert": false, "latenight": false, "lunch": true, "dinner": false, "breakfast": false, "brunch": false}, "RestaurantsTableService": false, "HasTV": true, "RestaurantsGoodForGroups": true, "WiFi": "no", "RestaurantsAttire": "casual", "RestaurantsReservations": false, "OutdoorSeating": false, "BusinessAcceptsCreditCards": false, "RestaurantsPriceRange2": 1, "BikeParking": false, "RestaurantsDelivery": false, "Ambience": {"romantic": false, "intimate": false, "classy": false, "hipster": false, "divey": false, "touristy": false, "trendy": false, "upscale": false, "casual": false}, "RestaurantsTakeOut": true, "GoodForKids": true}, "categories": ["Seafood", "Restaurants"], "hours": {"Tuesday": "10:00-20:00", "Friday": "10:00-21:00", "Wednesday": "10:00-20:00", "Thursday": "10:00-21:00", "Saturday": "10:00-20:00"}}, {"business_id": "3K8mhHIuE88mkcgOqFVTwg", "name": "Outback Steakhouse", "neighborhood": "", "address": "501 N New Hope Rd", "city": "Gastonia", "state": "NC", "postal_code": "28054", "latitude": 35.2702411, "longitude": -81.1507919, "stars": 3.0, "review_count": 45, "is_open": 1, "attributes": {"RestaurantsTableService": true, "GoodForMeal": {"dessert": false, "latenight": false, "lunch": true, "dinner": true, "breakfast": false, "brunch": false}, "Alcohol": "full_bar", "Caters": false, "HasTV": true, "RestaurantsGoodForGroups": true, "NoiseLevel": "average", "WiFi": "no", "RestaurantsAttire": "casual", "RestaurantsReservations": true, "OutdoorSeating": false, "BusinessAcceptsCreditCards": true, "RestaurantsPriceRange2": 2, "BikeParking": true, "RestaurantsDelivery": true, "Ambience": {"romantic": false, "intimate": false, "classy": false, "hipster": false, "divey": false, "touristy": false, "trendy": false, "upscale": false, "casual": true}, "RestaurantsTakeOut": true, "GoodForKids": true, "WheelchairAccessible": true, "BusinessParking": {"garage": false, "street": false, "validated": false, "lot": true, "valet": false}}, "categories": ["American (New)", "Restaurants"], "hours": {"Monday": "11:00-22:00", "Tuesday": "11:00-22:00", "Friday": "11:00-23:00", "Wednesday": "11:00-22:00", "Thursday": "11:00-22:00", "Sunday": "11:00-22:00", "Saturday": "11:00-23:00"}}, {"business_id": "di9rdjT71cYTlwKMYeVk0g", "name": "Olive Garden Italian Restaurant", "neighborhood": "", "address": "432 Cox Rd", "city": "Gastonia", "state": "NC", "postal_code": "28054", "latitude": 35.2637359072, "longitude": -81.1327011301, "stars": 3.0, "review_count": 29, "is_open": 1, "attributes": {"Alcohol": "full_bar", "HasTV": true, "NoiseLevel": "average", "RestaurantsAttire": "casual", "BusinessAcceptsCreditCards": true, "Music": {"dj": false, "background_music": true, "no_music": false, "karaoke": false, "live": false, "video": false, "jukebox": false}, "Ambience": {"romantic": false, "intimate": false, "classy": false, "hipster": false, "divey": false, "touristy": false, "trendy": false, "upscale": false, "casual": false}, "RestaurantsGoodForGroups": true, "Caters": true, "WiFi": "free", "RestaurantsReservations": false, "RestaurantsTableService": true, "RestaurantsTakeOut": true, "GoodForKids": true, "HappyHour": true, "GoodForDancing": false, "DogsAllowed": false, "BikeParking": false, "OutdoorSeating": false, "RestaurantsPriceRange2": 2, "RestaurantsDelivery": false, "GoodForMeal": {"dessert": false, "latenight": false, "lunch": true, "dinner": true, "breakfast": false, "brunch": false}, "BusinessParking": {"garage": false, "street": false, "validated": false, "lot": true, "valet": false}, "CoatCheck": false, "Smoking": "no", "WheelchairAccessible": true}, "categories": ["Bars", "Fast Food", "Bars", "Restaurants", "Italian", "Nightlife"], "hours": {"Monday": "11:00-22:00", "Tuesday": "11:00-22:00", "Friday": "11:00-23:00", "Wednesday": "11:00-22:00", "Thursday": "11:00-22:00", "Sunday": "11:00-22:00", "Saturday": "11:00-23:00"}}, {"business_id": "T6pBz7Je2Bxz-Du_31LOwQ", "name": "La Fuente Bar & Grill", "neighborhood": "", "address": "3070 E Franklin Blvd", "city": "Gastonia", "state": "NC", "postal_code": "28056", "latitude": 35.2593840051, "longitude": -81.1227563821, "stars": 3.5, "review_count": 28, "is_open": 1, "attributes": {"RestaurantsTableService": true, "GoodForMeal": {"dessert": false, "latenight": false, "lunch": false, "dinner": true, "breakfast": false, "brunch": false}, "Alcohol": "full_bar", "HasTV": true, "RestaurantsGoodForGroups": true, "NoiseLevel": "average", "WiFi": "no", "RestaurantsAttire": "casual", "RestaurantsReservations": true, "OutdoorSeating": true, "BusinessAcceptsCreditCards": true, "RestaurantsPriceRange2": 1, "BikeParking": true, "RestaurantsDelivery": false, "Ambience": {"romantic": false, "intimate": false, "classy": false, "hipster": false, "divey": false, "touristy": false, "trendy": false, "upscale": false, "casual": true}, "RestaurantsTakeOut": true, "GoodForKids": true, "WheelchairAccessible": true, "BusinessParking": {"garage": false, "street": false, "validated": false, "lot": true, "valet": false}}, "categories": ["Mexican", "Restaurants"], "hours": {"Monday": "11:00-22:00", "Tuesday": "11:00-22:00", "Friday": "11:00-22:30", "Wednesday": "11:00-22:00", "Thursday": "11:00-22:00", "Sunday": "12:00-21:00", "Saturday": "11:00-22:30"}}, {"business_id": "7Aw816ZDd-9bHnQlKPHdbg", "name": "Dunkin' Donuts", "neighborhood": "", "address": "2165 N Chester St", "city": "Gastonia", "state": "NC", "postal_code": "28052", "latitude": 35.2888296, "longitude": -81.1879604, "stars": 2.0, "review_count": 14, "is_open": 1, "attributes": {"BusinessParking": {"garage": false, "street": false, "validated": false, "lot": true, "valet": false}, "WiFi": "free", "OutdoorSeating": false, "BusinessAcceptsCreditCards": true, "RestaurantsPriceRange2": 1, "BikeParking": true, "RestaurantsTakeOut": true, "WheelchairAccessible": true}, "categories": ["Food", "Breakfast", "Coffee & Tea"], "hours": {"Monday": "0:00-0:00", "Tuesday": "0:00-0:00", "Friday": "0:00-0:00", "Wednesday": "0:00-0:00", "Thursday": "0:00-0:00", "Sunday": "0:00-0:00", "Saturday": "0:00-0:00"}}, {"business_id": "Ue21umKWUtSbdFVh_2ggUw", "name": "Gastonia Grill & Sushi Buffet", "neighborhood": "", "address": "212 South New Hope Rd", "city": "Gastonia", "state": "NC", "postal_code": "28054", "latitude": 35.2606566, "longitude": -81.1501218, "stars": 3.5, "review_count": 4, "is_open": 1, "attributes": {"RestaurantsTableService": true, "BusinessParking": {"garage": false, "street": false, "validated": false, "lot": true, "valet": false}, "Caters": true, "HasTV": true, "WiFi": "no", "OutdoorSeating": false, "BusinessAcceptsCreditCards": true, "BikeParking": true, "RestaurantsDelivery": false, "RestaurantsTakeOut": true, "GoodForKids": true, "WheelchairAccessible": true, "Alcohol": "none"}, "categories": ["Asian Fusion", "Japanese", "American (Traditional)", "Buffets", "Restaurants"], "hours": {"Monday": "11:00-21:30", "Tuesday": "11:00-21:30", "Friday": "11:00-22:00", "Wednesday": "11:00-21:30", "Thursday": "11:00-21:30", "Sunday": "11:00-21:30", "Saturday": "11:00-22:00"}}, {"business_id": "lyXpYbQ_5hOsemVTP1WLbA", "name": "K\u016aRE Vaporium & Lounge - Gastonia", "neighborhood": "", "address": "3900 E Franklin Blvd, Ste E100", "city": "Gastonia", "state": "NC", "postal_code": "28056", "latitude": 35.2576994, "longitude": -81.1118458, "stars": 5.0, "review_count": 8, "is_open": 1, "attributes": {"BusinessParking": {"garage": false, "street": false, "validated": false, "lot": false, "valet": false}, "HasTV": false, "CoatCheck": false, "RestaurantsReservations": false, "OutdoorSeating": true, "BusinessAcceptsCreditCards": true, "RestaurantsPriceRange2": 2, "BusinessAcceptsBitcoin": false, "Music": {"dj": false, "background_music": true, "no_music": false, "karaoke": false, "live": false, "video": false, "jukebox": false}, "BikeParking": true, "Smoking": "yes", "RestaurantsGoodForGroups": false, "NoiseLevel": "quiet", "GoodForDancing": false, "Alcohol": "none"}, "categories": ["Bars", "Shopping", "Vape Shops", "Lounges", "Nightlife"], "hours": {"Monday": "11:00-22:00", "Tuesday": "11:00-22:00", "Friday": "11:00-23:00", "Wednesday": "11:00-22:00", "Thursday": "11:00-23:00", "Sunday": "12:00-22:00", "Saturday": "10:00-23:00"}}, {"business_id": "773ovbZW7HvfaNy5laUznQ", "name": "Jia Asian Fusion & Sushi Bar", "neighborhood": "", "address": "3418 S New Hope Rd", "city": "Gastonia", "state": "NC", "postal_code": "28056", "latitude": 35.2247152086, "longitude": -81.1086464742, "stars": 4.5, "review_count": 104, "is_open": 1, "attributes": {"RestaurantsTableService": true, "GoodForMeal": {"dessert": false, "latenight": false, "lunch": true, "dinner": true, "breakfast": false, "brunch": false}, "Alcohol": "beer_and_wine", "Caters": false, "HasTV": true, "RestaurantsGoodForGroups": true, "NoiseLevel": "quiet", "WiFi": "no", "RestaurantsAttire": "casual", "RestaurantsReservations": true, "OutdoorSeating": false, "BusinessAcceptsCreditCards": true, "RestaurantsPriceRange2": 2, "BikeParking": false, "RestaurantsDelivery": false, "Ambience": {"romantic": false, "intimate": false, "classy": false, "hipster": false, "divey": false, "touristy": false, "trendy": false, "upscale": false, "casual": true}, "RestaurantsTakeOut": true, "GoodForKids": true, "BusinessParking": {"garage": false, "street": false, "validated": false, "lot": true, "valet": false}}, "categories": ["Restaurants", "Asian Fusion", "Pan Asian", "Chinese", "Japanese"], "hours": {"Monday": "16:30-22:00", "Tuesday": "16:30-22:00", "Friday": "16:30-22:30", "Wednesday": "16:30-22:00", "Thursday": "16:30-22:00", "Sunday": "11:30-21:30", "Saturday": "11:00-22:30"}}, {"business_id": "A8C2iIM0MSwz-0DLJBGX8w", "name": "Chicken King", "neighborhood": "", "address": "908 W Franklin Blvd", "city": "Gastonia", "state": "NC", "postal_code": "28052", "latitude": 35.2625236511, "longitude": -81.1962356567, "stars": 3.0, "review_count": 8, "is_open": 1, "attributes": {"GoodForMeal": {"dessert": false, "latenight": false, "lunch": false, "dinner": false, "breakfast": false, "brunch": false}, "Alcohol": "none", "Caters": false, "HasTV": false, "RestaurantsGoodForGroups": false, "NoiseLevel": "loud", "WiFi": "no", "RestaurantsAttire": "casual", "RestaurantsReservations": false, "OutdoorSeating": false, "BusinessAcceptsCreditCards": true, "RestaurantsPriceRange2": 1, "BikeParking": false, "RestaurantsDelivery": false, "Ambience": {"romantic": false, "intimate": false, "classy": false, "hipster": false, "divey": false, "touristy": false, "trendy": false, "upscale": false, "casual": false}, "RestaurantsTakeOut": true, "GoodForKids": true, "RestaurantsTableService": false}, "categories": ["Soul Food", "American (New)", "Restaurants"], "hours": {}}, {"business_id": "b6ucK0IXd9L4pBYrysBNLg", "name": "Captain's Cap of Gastonia Number 1", "neighborhood": "", "address": "3140 Linwood Rd", "city": "Gastonia", "state": "NC", "postal_code": "28052", "latitude": 35.2321928, "longitude": -81.2359454, "stars": 3.0, "review_count": 8, "is_open": 1, "attributes": {"Alcohol": "none", "HasTV": false, "RestaurantsGoodForGroups": true, "NoiseLevel": "average", "RestaurantsAttire": "casual", "RestaurantsReservations": true, "OutdoorSeating": false, "BusinessAcceptsCreditCards": true, "RestaurantsPriceRange2": 2, "BikeParking": true, "RestaurantsDelivery": false, "Ambience": {"romantic": false, "intimate": false, "classy": false, "hipster": false, "divey": false, "touristy": false, "trendy": false, "upscale": false, "casual": false}, "RestaurantsTakeOut": true, "GoodForKids": true}, "categories": ["Restaurants", "Seafood"], "hours": {}}, {"business_id": "L_RotH31jKbxf32WBrw43A", "name": "Me Vietnamese Kitchen", "neighborhood": "", "address": "2524 E Franklin Blvd, Ste A", "city": "Gastonia", "state": "NC", "postal_code": "28056", "latitude": 35.2613882214, "longitude": -81.1321284994, "stars": 4.0, "review_count": 49, "is_open": 1, "attributes": {"GoodForMeal": {"dessert": false, "latenight": false, "lunch": true, "dinner": false, "breakfast": false, "brunch": false}, "Alcohol": "none", "Caters": false, "HasTV": true, "RestaurantsGoodForGroups": true, "NoiseLevel": "quiet", "WiFi": "free", "RestaurantsAttire": "casual", "RestaurantsReservations": false, "OutdoorSeating": true, "BusinessAcceptsCreditCards": true, "RestaurantsPriceRange2": 1, "BikeParking": false, "RestaurantsDelivery": false, "Ambience": {"romantic": false, "intimate": false, "classy": false, "hipster": false, "divey": false, "touristy": false, "trendy": false, "upscale": false, "casual": true}, "RestaurantsTakeOut": true, "GoodForKids": true, "WheelchairAccessible": true, "BusinessParking": {"garage": false, "street": false, "validated": false, "lot": false, "valet": false}}, "categories": ["Noodles", "Vietnamese", "Restaurants"], "hours": {"Tuesday": "11:00-21:00", "Friday": "11:00-21:00", "Wednesday": "11:00-21:00", "Thursday": "11:00-21:00", "Sunday": "12:00-20:00", "Saturday": "11:00-21:00"}}, {"business_id": "OKlXchOaMlv5F6LEdaeiow", "name": "Life of Pie", "neighborhood": "", "address": "101 W Main Ave", "city": "Gastonia", "state": "NC", "postal_code": "28052", "latitude": 35.2639175856, "longitude": -81.1817503975, "stars": 3.5, "review_count": 17, "is_open": 1, "attributes": {"RestaurantsTableService": false, "GoodForMeal": {"dessert": false, "latenight": false, "lunch": false, "dinner": false, "breakfast": false, "brunch": false}, "Alcohol": "none", "HasTV": true, "RestaurantsGoodForGroups": false, "NoiseLevel": "average", "WiFi": "no", "RestaurantsAttire": "casual", "RestaurantsReservations": false, "OutdoorSeating": true, "BusinessAcceptsCreditCards": true, "RestaurantsPriceRange2": 1, "BikeParking": true, "RestaurantsDelivery": false, "Ambience": {"romantic": false, "intimate": false, "classy": false, "hipster": false, "divey": false, "touristy": false, "trendy": false, "upscale": false, "casual": false}, "RestaurantsTakeOut": true, "GoodForKids": true, "BusinessParking": {"garage": false, "street": false, "validated": false, "lot": false, "valet": false}}, "categories": ["Restaurants", "Pizza"], "hours": {"Monday": "11:00-19:00", "Tuesday": "11:00-19:00", "Friday": "11:00-20:00", "Wednesday": "11:00-19:00", "Thursday": "11:00-19:00", "Saturday": "11:00-20:00"}}, {"business_id": "JxHw15slmo2ZDbHMilKyUQ", "name": "Hwy 55 Burgers Shakes & Fries", "neighborhood": "", "address": "3044 East Franklin Boulevard", "city": "Gastonia", "state": "NC", "postal_code": "28056", "latitude": 35.2605303114, "longitude": -81.1224636125, "stars": 3.0, "review_count": 22, "is_open": 1, "attributes": {"Alcohol": "none", "HasTV": false, "NoiseLevel": "loud", "RestaurantsAttire": "casual", "BusinessAcceptsCreditCards": true, "Ambience": {"romantic": false, "intimate": false, "classy": false, "hipster": false, "divey": false, "touristy": false, "trendy": false, "upscale": false, "casual": true}, "RestaurantsGoodForGroups": true, "Caters": false, "WiFi": "no", "RestaurantsReservations": false, "BikeParking": true, "RestaurantsTakeOut": true, "GoodForKids": true, "WheelchairAccessible": true, "DogsAllowed": false, "RestaurantsTableService": true, "OutdoorSeating": true, "RestaurantsPriceRange2": 1, "RestaurantsDelivery": false, "GoodForMeal": {"dessert": false, "latenight": false, "lunch": true, "dinner": true, "breakfast": false, "brunch": false}, "BusinessParking": {"garage": false, "street": false, "validated": false, "lot": true, "valet": false}, "DriveThru": false}, "categories": ["American (Traditional)", "Restaurants", "Fast Food", "Cheesesteaks"], "hours": {"Monday": "11:00-21:00", "Tuesday": "11:00-21:00", "Friday": "11:00-22:00", "Wednesday": "11:00-21:00", "Thursday": "11:00-21:00", "Sunday": "11:00-21:00", "Saturday": "11:00-22:00"}}, {"business_id": "8Lfb_aOz1e3nOWUSYLMLbw", "name": "Chuck E. Cheese's", "neighborhood": "", "address": "416 Cox Rd", "city": "Gastonia", "state": "NC", "postal_code": "28054", "latitude": 35.2628405, "longitude": -81.1328363, "stars": 3.0, "review_count": 4, "is_open": 1, "attributes": {"HasTV": true, "RestaurantsGoodForGroups": true, "WiFi": "free", "RestaurantsAttire": "casual", "RestaurantsReservations": true, "OutdoorSeating": false, "BusinessAcceptsCreditCards": true, "RestaurantsPriceRange2": 2, "RestaurantsDelivery": false, "Ambience": {"romantic": false, "intimate": false, "classy": false, "hipster": false, "divey": false, "touristy": false, "trendy": false, "upscale": false, "casual": false}, "RestaurantsTakeOut": true, "GoodForKids": true}, "categories": ["Pizza", "Arcades", "Party & Event Planning", "Event Planning & Services", "Restaurants", "Arts & Entertainment"], "hours": {"Monday": "11:00-21:00", "Tuesday": "11:00-21:00", "Friday": "11:00-22:00", "Wednesday": "11:00-21:00", "Thursday": "11:00-21:00", "Sunday": "11:00-21:00", "Saturday": "10:00-22:00"}}, {"business_id": "NQRm_I1FK-r7xd1tVRcb6g", "name": "Texas Roadhouse", "neighborhood": "", "address": "1863 Remount Rd", "city": "Gastonia", "state": "NC", "postal_code": "28054", "latitude": 35.2695437, "longitude": -81.1450266, "stars": 4.0, "review_count": 49, "is_open": 1, "attributes": {"RestaurantsTableService": true, "GoodForMeal": {"dessert": false, "latenight": false, "lunch": false, "dinner": true, "breakfast": false, "brunch": false}, "Alcohol": "full_bar", "Caters": true, "HasTV": true, "RestaurantsGoodForGroups": true, "NoiseLevel": "average", "WiFi": "no", "RestaurantsAttire": "casual", "RestaurantsReservations": false, "OutdoorSeating": false, "BusinessAcceptsCreditCards": true, "RestaurantsPriceRange2": 2, "BikeParking": true, "RestaurantsDelivery": false, "Ambience": {"romantic": false, "intimate": false, "classy": false, "hipster": false, "divey": false, "touristy": false, "trendy": false, "upscale": false, "casual": true}, "RestaurantsTakeOut": true, "GoodForKids": true, "WheelchairAccessible": true, "BusinessParking": {"garage": false, "street": false, "validated": false, "lot": true, "valet": false}}, "categories": ["Barbeque", "American (New)", "American (Traditional)", "Restaurants"], "hours": {"Monday": "16:00-22:00", "Tuesday": "16:00-22:00", "Friday": "16:00-23:00", "Wednesday": "16:00-22:00", "Thursday": "16:00-22:00", "Sunday": "12:00-23:00", "Saturday": "12:00-23:00"}}, {"business_id": "6iqN2D0Dp_9_i-GD2l2s2Q", "name": "Golden Palace", "neighborhood": "", "address": "3206 Union Rd", "city": "Gastonia", "state": "NC", "postal_code": "28056", "latitude": 35.2091206, "longitude": -81.1651521, "stars": 4.0, "review_count": 12, "is_open": 1, "attributes": {"GoodForMeal": {"dessert": false, "latenight": false, "lunch": false, "dinner": false, "breakfast": false, "brunch": false}, "Alcohol": "full_bar", "Caters": false, "HasTV": false, "RestaurantsGoodForGroups": true, "NoiseLevel": "quiet", "WiFi": "no", "RestaurantsAttire": "casual", "RestaurantsReservations": false, "OutdoorSeating": false, "BusinessAcceptsCreditCards": true, "RestaurantsPriceRange2": 2, "RestaurantsTableService": true, "RestaurantsDelivery": false, "Ambience": {"romantic": false, "intimate": false, "classy": false, "hipster": false, "divey": false, "touristy": false, "trendy": false, "upscale": false, "casual": false}, "RestaurantsTakeOut": true, "GoodForKids": true, "WheelchairAccessible": true, "BusinessParking": {"garage": false, "street": false, "validated": false, "lot": false, "valet": false}}, "categories": ["Restaurants", "Chinese"], "hours": {}}, {"business_id": "_ruizXa-KyFO5mNA0p3nBA", "name": "Webb Custom Kitchen", "neighborhood": "", "address": "182 S South St", "city": "Gastonia", "state": "NC", "postal_code": "28052", "latitude": 35.2624954, "longitude": -81.1835868, "stars": 4.5, "review_count": 162, "is_open": 1, "attributes": {"BusinessParking": {"garage": false, "street": false, "validated": false, "lot": false, "valet": true}, "GoodForMeal": {"dessert": false, "latenight": false, "lunch": false, "dinner": true, "breakfast": false, "brunch": false}, "Alcohol": "full_bar", "Caters": false, "HasTV": true, "GoodForKids": false, "NoiseLevel": "average", "WiFi": "free", "RestaurantsAttire": "casual", "RestaurantsReservations": true, "OutdoorSeating": false, "BusinessAcceptsCreditCards": true, "RestaurantsPriceRange2": 2, "BikeParking": false, "RestaurantsDelivery": false, "Ambience": {"romantic": false, "intimate": false, "classy": true, "hipster": false, "divey": false, "touristy": false, "trendy": false, "upscale": true, "casual": false}, "RestaurantsTakeOut": true, "RestaurantsGoodForGroups": true, "WheelchairAccessible": true, "RestaurantsTableService": true}, "categories": ["Nightlife", "American (New)", "American (New)", "Bars", "Restaurants", "Bars"], "hours": {"Monday": "11:00-14:30", "Tuesday": "11:00-14:30", "Friday": "11:00-14:30", "Wednesday": "11:00-14:30", "Thursday": "11:00-14:30", "Saturday": "16:00-23:00"}}, {"business_id": "RiNsVx2Zn_eoRaR23anbDQ", "name": "Don Pedro", "neighborhood": "", "address": "3272 Union Rd", "city": "Gastonia", "state": "NC", "postal_code": "28056", "latitude": 35.2086242, "longitude": -81.1651014, "stars": 4.0, "review_count": 20, "is_open": 1, "attributes": {"GoodForMeal": {"dessert": false, "latenight": false, "lunch": false, "dinner": false, "breakfast": false, "brunch": false}, "RestaurantsTableService": true, "HasTV": true, "RestaurantsGoodForGroups": true, "NoiseLevel": "average", "RestaurantsAttire": "casual", "RestaurantsReservations": true, "OutdoorSeating": true, "BusinessAcceptsCreditCards": true, "RestaurantsPriceRange2": 2, "BikeParking": false, "RestaurantsDelivery": false, "Ambience": {"romantic": false, "intimate": false, "classy": false, "hipster": false, "divey": false, "touristy": false, "trendy": false, "upscale": false, "casual": false}, "RestaurantsTakeOut": true, "GoodForKids": true, "Alcohol": "full_bar"}, "categories": ["Restaurants", "Mexican"], "hours": {"Monday": "11:00-22:00", "Tuesday": "11:00-22:00", "Friday": "11:00-23:00", "Wednesday": "11:00-22:00", "Thursday": "11:00-22:00", "Sunday": "11:00-22:00", "Saturday": "11:00-23:00"}}, {"business_id": "xyK7KUcJzWy1LlejwQpQMg", "name": "El Patron", "neighborhood": "", "address": "3670 S New Hope Rd", "city": "Gastonia", "state": "NC", "postal_code": "28056", "latitude": 35.221905, "longitude": -81.1012329, "stars": 2.5, "review_count": 11, "is_open": 1, "attributes": {"RestaurantsTableService": true, "GoodForMeal": {"dessert": false, "latenight": false, "lunch": false, "dinner": false, "breakfast": false, "brunch": false}, "Alcohol": "full_bar", "Caters": false, "HasTV": true, "RestaurantsGoodForGroups": true, "NoiseLevel": "average", "WiFi": "no", "RestaurantsAttire": "casual", "RestaurantsReservations": false, "OutdoorSeating": false, "BusinessAcceptsCreditCards": true, "RestaurantsPriceRange2": 2, "BikeParking": false, "RestaurantsDelivery": false, "Ambience": {"romantic": false, "intimate": false, "classy": false, "hipster": false, "divey": false, "touristy": false, "trendy": false, "upscale": false, "casual": false}, "RestaurantsTakeOut": true, "GoodForKids": true, "BusinessParking": {"garage": false, "street": false, "validated": false, "lot": false, "valet": false}}, "categories": ["Restaurants", "Mexican"], "hours": {}}, {"business_id": "9g4p3tny291ANSAQKoDk4w", "name": "Villa-Roma Restaurant", "neighborhood": "", "address": "5000 Union Rd", "city": "Gastonia", "state": "NC", "postal_code": "28056", "latitude": 35.1869829, "longitude": -81.1495945, "stars": 4.0, "review_count": 7, "is_open": 1, "attributes": {"HasTV": true, "RestaurantsGoodForGroups": true, "WiFi": "free", "RestaurantsAttire": "casual", "RestaurantsReservations": true, "OutdoorSeating": false, "BusinessAcceptsCreditCards": true, "RestaurantsPriceRange2": 1, "BikeParking": true, "RestaurantsDelivery": false, "Ambience": {"romantic": false, "intimate": false, "classy": false, "hipster": false, "divey": false, "touristy": false, "trendy": false, "upscale": false, "casual": false}, "RestaurantsTakeOut": true, "GoodForKids": true}, "categories": ["Restaurants", "Italian"], "hours": {}}, {"business_id": "UING7EtyRKTK3hLpjg-DYg", "name": "Enzo's Pizzeria", "neighborhood": "", "address": "117 N Myrtle School Rd", "city": "Gastonia", "state": "NC", "postal_code": "28052", "latitude": 35.259925, "longitude": -81.223502, "stars": 4.0, "review_count": 29, "is_open": 1, "attributes": {"RestaurantsTableService": true, "GoodForMeal": {"dessert": false, "latenight": false, "lunch": true, "dinner": true, "breakfast": false, "brunch": false}, "Alcohol": "none", "Caters": true, "HasTV": true, "RestaurantsGoodForGroups": true, "NoiseLevel": "average", "RestaurantsAttire": "casual", "RestaurantsReservations": false, "OutdoorSeating": false, "BusinessAcceptsCreditCards": true, "RestaurantsPriceRange2": 1, "BikeParking": true, "RestaurantsDelivery": false, "Ambience": {"romantic": false, "intimate": false, "classy": false, "hipster": false, "divey": false, "touristy": false, "trendy": false, "upscale": false, "casual": true}, "RestaurantsTakeOut": true, "GoodForKids": true, "BusinessParking": {"garage": false, "street": false, "validated": false, "lot": false, "valet": false}}, "categories": ["Pizza", "Restaurants"], "hours": {"Monday": "11:00-21:00", "Tuesday": "11:00-21:00", "Friday": "11:00-22:00", "Wednesday": "11:00-21:00", "Thursday": "11:00-21:00", "Sunday": "11:00-21:00", "Saturday": "11:00-22:00"}}, {"business_id": "2EseSYpIwW6JaA0wUojd4Q", "name": "On The Border Mexican Grill & Cantina", "neighborhood": "", "address": "2409 E Franklin Blvd", "city": "Gastonia", "state": "NC", "postal_code": "28054", "latitude": 35.2611573, "longitude": -81.1351419, "stars": 3.0, "review_count": 31, "is_open": 1, "attributes": {"RestaurantsTableService": true, "GoodForMeal": {"dessert": false, "latenight": false, "lunch": true, "dinner": false, "breakfast": false, "brunch": false}, "Alcohol": "full_bar", "Caters": true, "HasTV": false, "RestaurantsGoodForGroups": true, "NoiseLevel": "average", "WiFi": "free", "RestaurantsAttire": "casual", "RestaurantsReservations": true, "OutdoorSeating": true, "BusinessAcceptsCreditCards": true, "RestaurantsPriceRange2": 2, "BikeParking": true, "RestaurantsDelivery": false, "Ambience": {"romantic": false, "intimate": false, "classy": false, "hipster": false, "divey": false, "touristy": false, "trendy": false, "upscale": false, "casual": false}, "RestaurantsTakeOut": true, "GoodForKids": true, "WheelchairAccessible": true, "BusinessParking": {"garage": false, "street": false, "validated": false, "lot": true, "valet": false}}, "categories": ["Restaurants", "Mexican", "Tex-Mex"], "hours": {"Monday": "11:00-23:00", "Tuesday": "11:00-23:00", "Friday": "11:00-23:00", "Wednesday": "11:00-23:00", "Thursday": "11:00-23:00", "Sunday": "11:00-22:00", "Saturday": "11:00-23:00"}}, {"business_id": "brztOsfE9ozi7iQOzrQOOQ", "name": "Peking Garden", "neighborhood": "", "address": "3078 E Franklin Blvd", "city": "Gastonia", "state": "NC", "postal_code": "28056", "latitude": 35.259252, "longitude": -81.1223086, "stars": 3.0, "review_count": 12, "is_open": 1, "attributes": {"RestaurantsTableService": false, "GoodForMeal": {"dessert": false, "latenight": false, "lunch": false, "dinner": false, "breakfast": false, "brunch": false}, "Alcohol": "none", "HasTV": true, "RestaurantsGoodForGroups": true, "NoiseLevel": "quiet", "RestaurantsAttire": "casual", "RestaurantsReservations": false, "OutdoorSeating": false, "BusinessAcceptsCreditCards": true, "RestaurantsPriceRange2": 1, "BikeParking": false, "RestaurantsDelivery": false, "Ambience": {"romantic": false, "intimate": false, "classy": false, "hipster": false, "divey": false, "touristy": false, "trendy": false, "upscale": false, "casual": false}, "RestaurantsTakeOut": true, "GoodForKids": true, "BusinessParking": {"garage": false, "street": false, "validated": false, "lot": false, "valet": false}}, "categories": ["Restaurants", "Chinese"], "hours": {}}, {"business_id": "RqbZ-lsPBgQeDfLs80ELHQ", "name": "Noodles & Company", "neighborhood": "", "address": "2230 East Franklin Blvd", "city": "Gastonia", "state": "NC", "postal_code": "28054", "latitude": 35.2618867596, "longitude": -81.1394690722, "stars": 3.5, "review_count": 19, "is_open": 1, "attributes": {"GoodForMeal": {"dessert": false, "latenight": false, "lunch": false, "dinner": false, "breakfast": false, "brunch": false}, "Alcohol": "beer_and_wine", "HasTV": false, "RestaurantsGoodForGroups": true, "RestaurantsAttire": "casual", "RestaurantsReservations": false, "OutdoorSeating": true, "BusinessAcceptsCreditCards": true, "RestaurantsPriceRange2": 1, "BikeParking": false, "RestaurantsDelivery": false, "Ambience": {"romantic": false, "intimate": false, "classy": false, "hipster": false, "divey": false, "touristy": false, "trendy": false, "upscale": false, "casual": false}, "RestaurantsTakeOut": true, "GoodForKids": true, "BusinessParking": {"garage": false, "street": false, "validated": false, "lot": false, "valet": false}}, "categories": ["Fast Food", "Noodles", "Soup", "Restaurants"], "hours": {"Monday": "11:00-21:00", "Tuesday": "11:00-21:00", "Friday": "11:00-21:00", "Wednesday": "11:00-21:00", "Thursday": "11:00-21:00", "Sunday": "11:00-21:00", "Saturday": "11:00-21:00"}}, {"business_id": "XBYrsKCn0fAgUO2AD7Lizg", "name": "Chili's", "neighborhood": "", "address": "3086 E Franklin Blvd", "city": "Gastonia", "state": "NC", "postal_code": "28056", "latitude": 35.2594192, "longitude": -81.1240607, "stars": 2.0, "review_count": 31, "is_open": 1, "attributes": {"Alcohol": "full_bar", "HasTV": true, "NoiseLevel": "average", "RestaurantsAttire": "casual", "BusinessAcceptsCreditCards": true, "Music": {"dj": false, "background_music": false, "no_music": false, "karaoke": false, "live": false, "video": false, "jukebox": false}, "Ambience": {"romantic": false, "intimate": false, "classy": false, "hipster": false, "divey": false, "touristy": false, "trendy": false, "upscale": false, "casual": false}, "RestaurantsGoodForGroups": true, "Caters": false, "WiFi": "no", "RestaurantsReservations": false, "RestaurantsTableService": true, "RestaurantsTakeOut": true, "GoodForKids": true, "HappyHour": true, "GoodForDancing": false, "BikeParking": true, "OutdoorSeating": false, "RestaurantsPriceRange2": 2, "RestaurantsDelivery": false, "BestNights": {"monday": false, "tuesday": false, "friday": false, "wednesday": false, "thursday": false, "sunday": false, "saturday": false}, "GoodForMeal": {"dessert": false, "latenight": false, "lunch": true, "dinner": false, "breakfast": false, "brunch": false}, "BusinessParking": {"garage": false, "street": false, "validated": false, "lot": true, "valet": false}, "CoatCheck": false, "Smoking": "no", "WheelchairAccessible": true}, "categories": ["American (Traditional)", "Tex-Mex", "Bars", "Restaurants", "Nightlife"], "hours": {"Monday": "11:00-23:00", "Tuesday": "11:00-23:00", "Friday": "11:00-0:00", "Wednesday": "11:00-23:00", "Thursday": "11:00-23:00", "Sunday": "11:00-23:00", "Saturday": "11:00-0:00"}}, {"business_id": "DSZXw-3SAq8uq6PokapgLw", "name": "Wendy's", "neighborhood": "", "address": "2216 Union Rd", "city": "Gastonia", "state": "NC", "postal_code": "28054", "latitude": 35.232375, "longitude": -81.169202, "stars": 1.0, "review_count": 4, "is_open": 1, "attributes": {"BusinessAcceptsCreditCards": true, "RestaurantsGoodForGroups": true, "GoodForKids": true, "RestaurantsReservations": false, "RestaurantsDelivery": false}, "categories": ["Restaurants", "Fast Food", "Fast Food"], "hours": {}}, {"business_id": "MTbh64cQsBJZ6Ogl2xg67Q", "name": "Tavern 24", "neighborhood": "", "address": "421 Cox Road", "city": "Gastonia", "state": "NC", "postal_code": "28054", "latitude": 35.2647007, "longitude": -81.1362468, "stars": 3.5, "review_count": 110, "is_open": 1, "attributes": {"Alcohol": "full_bar", "HasTV": true, "NoiseLevel": "average", "RestaurantsAttire": "casual", "BusinessAcceptsCreditCards": true, "Music": {"dj": false, "background_music": false, "no_music": false, "karaoke": false, "live": false, "video": false, "jukebox": false}, "Ambience": {"romantic": false, "intimate": false, "classy": false, "hipster": false, "divey": false, "touristy": false, "trendy": false, "upscale": false, "casual": true}, "DogsAllowed": false, "RestaurantsGoodForGroups": true, "BYOBCorkage": "no", "Caters": false, "WiFi": "free", "RestaurantsReservations": false, "BikeParking": true, "RestaurantsTakeOut": true, "GoodForKids": true, "HappyHour": true, "GoodForDancing": false, "Open24Hours": false, "RestaurantsTableService": true, "OutdoorSeating": true, "RestaurantsPriceRange2": 2, "RestaurantsDelivery": false, "BestNights": {"monday": false, "tuesday": false, "friday": false, "wednesday": true, "thursday": true, "sunday": true, "saturday": false}, "GoodForMeal": {"dessert": false, "latenight": false, "lunch": true, "dinner": true, "breakfast": false, "brunch": false}, "BusinessParking": {"garage": false, "street": false, "validated": false, "lot": true, "valet": false}, "CoatCheck": false, "Smoking": "outdoor", "WheelchairAccessible": true, "RestaurantsCounterService": false}, "categories": ["American (New)", "Nightlife", "American (Traditional)", "Bars", "Restaurants"], "hours": {"Monday": "11:00-23:00", "Tuesday": "11:00-23:00", "Friday": "11:00-0:00", "Wednesday": "11:00-23:00", "Thursday": "11:00-23:00", "Sunday": "11:00-23:00", "Saturday": "11:00-0:00"}}, {"business_id": "fJRKdEms3N8gXxHNbwYBXw", "name": "Chantilly's Tea Room & Restaurant", "neighborhood": "", "address": "1003 Union Rd", "city": "Gastonia", "state": "NC", "postal_code": "28054", "latitude": 35.2505392, "longitude": -81.176099, "stars": 2.0, "review_count": 4, "is_open": 1, "attributes": {"GoodForMeal": {"dessert": false, "latenight": false, "lunch": false, "dinner": false, "breakfast": false, "brunch": false}, "BusinessParking": {"garage": false, "street": false, "validated": false, "lot": false, "valet": false}, "HasTV": false, "RestaurantsGoodForGroups": true, "NoiseLevel": "average", "RestaurantsAttire": "casual", "OutdoorSeating": true, "BusinessAcceptsCreditCards": true, "RestaurantsPriceRange2": 2, "RestaurantsTableService": true, "Ambience": {"romantic": false, "intimate": false, "classy": false, "hipster": false, "divey": false, "touristy": false, "trendy": false, "upscale": false, "casual": false}, "RestaurantsTakeOut": true, "GoodForKids": false}, "categories": ["Fast Food", "Restaurants", "Vegetarian", "Tea Rooms", "Food"], "hours": {"Monday": "11:00-15:00", "Tuesday": "11:00-15:00", "Friday": "17:00-20:00", "Wednesday": "11:00-15:00", "Thursday": "17:00-20:00", "Saturday": "9:00-15:00"}}, {"business_id": "GxbUl5s9IOS01-bV0yT7qQ", "name": "Lily's Italian Bistro", "neighborhood": "", "address": "141 W Main Ave", "city": "Gastonia", "state": "NC", "postal_code": "28052", "latitude": 35.26355, "longitude": -81.182691, "stars": 4.0, "review_count": 57, "is_open": 1, "attributes": {"Alcohol": "full_bar", "HasTV": false, "NoiseLevel": "average", "RestaurantsAttire": "casual", "BusinessAcceptsCreditCards": true, "Music": {"dj": false, "background_music": false, "no_music": false, "karaoke": false, "live": false, "video": false, "jukebox": false}, "Ambience": {"romantic": false, "intimate": false, "classy": false, "hipster": false, "divey": false, "touristy": false, "trendy": false, "upscale": false, "casual": true}, "RestaurantsGoodForGroups": true, "WiFi": "no", "RestaurantsReservations": true, "BikeParking": false, "Smoking": "no", "GoodForKids": true, "GoodForDancing": false, "RestaurantsTableService": true, "OutdoorSeating": true, "RestaurantsPriceRange2": 3, "RestaurantsDelivery": false, "GoodForMeal": {"dessert": false, "latenight": false, "lunch": true, "dinner": true, "breakfast": false, "brunch": false}, "BusinessParking": {"garage": false, "street": true, "validated": false, "lot": false, "valet": false}, "CoatCheck": false, "RestaurantsTakeOut": true}, "categories": ["Cafes", "Restaurants", "Italian", "Nightlife", "Bars"], "hours": {"Monday": "11:00-21:00", "Tuesday": "11:00-21:00", "Friday": "11:00-22:00", "Wednesday": "11:00-21:00", "Thursday": "11:00-21:00", "Saturday": "11:00-22:00"}}, {"business_id": "0z_wWRoYmcWi6OVILvAn6w", "name": "R O 's Bar-B-Que", "neighborhood": "", "address": "1318 Gaston Ave", "city": "Gastonia", "state": "NC", "postal_code": "28052", "latitude": 35.263722, "longitude": -81.2039999, "stars": 2.5, "review_count": 38, "is_open": 1, "attributes": {"RestaurantsTableService": false, "GoodForMeal": {"dessert": false, "latenight": false, "lunch": true, "dinner": false, "breakfast": false, "brunch": false}, "Alcohol": "none", "Caters": true, "HasTV": true, "RestaurantsGoodForGroups": true, "NoiseLevel": "average", "WiFi": "no", "RestaurantsAttire": "casual", "RestaurantsReservations": false, "OutdoorSeating": false, "BusinessAcceptsCreditCards": true, "RestaurantsPriceRange2": 1, "BikeParking": true, "RestaurantsDelivery": false, "Ambience": {"romantic": false, "intimate": false, "classy": false, "hipster": false, "divey": true, "touristy": false, "trendy": false, "upscale": false, "casual": true}, "RestaurantsTakeOut": true, "GoodForKids": true, "BusinessParking": {"garage": false, "street": false, "validated": false, "lot": true, "valet": false}}, "categories": ["Event Planning & Services", "Barbeque", "Fast Food", "Caterers", "Restaurants", "Breakfast & Brunch"], "hours": {"Monday": "10:30-21:30", "Tuesday": "10:30-21:30", "Friday": "10:30-21:30", "Wednesday": "10:30-21:30", "Thursday": "10:30-21:30", "Saturday": "10:30-21:30"}}, {"business_id": "3N7pvxYoWlMc9KCsCWV5nA", "name": "Bojangles", "neighborhood": "", "address": "1657 Bessemer City Rd", "city": "Gastonia", "state": "NC", "postal_code": "28052", "latitude": 35.2782283, "longitude": -81.2333786, "stars": 2.5, "review_count": 3, "is_open": 1, "attributes": {"GoodForKids": true, "NoiseLevel": "average", "RestaurantsAttire": "casual", "RestaurantsReservations": false, "BusinessAcceptsCreditCards": true, "RestaurantsDelivery": false, "RestaurantsTakeOut": true, "RestaurantsGoodForGroups": true}, "categories": ["Southern", "Restaurants", "Fast Food"], "hours": {}}, {"business_id": "uOXq2qSbCV6uFTaa5Rd9jg", "name": "Brixx Wood Fired Pizza", "neighborhood": "", "address": "501 Cox Rd", "city": "Gastonia", "state": "NC", "postal_code": "28054", "latitude": 35.265982, "longitude": -81.134454, "stars": 3.0, "review_count": 42, "is_open": 1, "attributes": {"GoodForMeal": {"dessert": false, "latenight": true, "lunch": true, "dinner": true, "breakfast": false, "brunch": false}, "Alcohol": "full_bar", "Caters": true, "HasTV": true, "RestaurantsGoodForGroups": true, "NoiseLevel": "average", "WiFi": "free", "RestaurantsAttire": "casual", "RestaurantsReservations": false, "OutdoorSeating": true, "BusinessAcceptsCreditCards": true, "RestaurantsPriceRange2": 2, "BikeParking": true, "RestaurantsTableService": true, "RestaurantsDelivery": false, "Ambience": {"romantic": false, "intimate": false, "classy": false, "hipster": false, "divey": false, "touristy": false, "trendy": false, "upscale": false, "casual": true}, "RestaurantsTakeOut": true, "GoodForKids": true, "BusinessParking": {"garage": false, "street": false, "validated": false, "lot": true, "valet": false}}, "categories": ["Gluten-Free", "Restaurants", "Pizza"], "hours": {"Monday": "11:00-0:00", "Tuesday": "11:00-0:00", "Friday": "11:00-1:00", "Wednesday": "11:00-0:00", "Thursday": "11:00-0:00", "Sunday": "11:00-0:00", "Saturday": "11:00-1:00"}}, {"business_id": "eQ1zbFjs6zU53qDWC_7Qpg", "name": "Showmars - Gastonia", "neighborhood": "", "address": "1900 Broadcast St", "city": "Gastonia", "state": "NC", "postal_code": "28052", "latitude": 35.2858357, "longitude": -81.1885326, "stars": 4.5, "review_count": 8, "is_open": 1, "attributes": {"GoodForMeal": {"dessert": false, "latenight": false, "lunch": true, "dinner": false, "breakfast": false, "brunch": false}, "HasTV": false, "RestaurantsGoodForGroups": true, "RestaurantsAttire": "casual", "RestaurantsReservations": false, "OutdoorSeating": false, "BusinessAcceptsCreditCards": true, "RestaurantsPriceRange2": 1, "BikeParking": false, "RestaurantsDelivery": false, "Ambience": {"romantic": false, "intimate": false, "classy": false, "hipster": false, "divey": false, "touristy": false, "trendy": false, "upscale": false, "casual": false}, "RestaurantsTakeOut": true, "GoodForKids": true}, "categories": ["Restaurants", "Greek", "American (Traditional)"], "hours": {"Monday": "10:30-21:00", "Tuesday": "10:30-21:00", "Friday": "10:30-22:00", "Wednesday": "10:30-21:00", "Thursday": "10:30-21:00", "Sunday": "11:00-21:00", "Saturday": "10:30-21:00"}}, {"business_id": "La_0EvTtRZOV-9AnG3ke6Q", "name": "Olio's", "neighborhood": "", "address": "245 W Garrison Blvd, Ste H", "city": "Gastonia", "state": "NC", "postal_code": "28052", "latitude": 35.2526462402, "longitude": -81.1862789553, "stars": 4.0, "review_count": 10, "is_open": 1, "attributes": {"GoodForMeal": {"dessert": false, "latenight": false, "lunch": false, "dinner": false, "breakfast": false, "brunch": false}, "BusinessParking": {"garage": false, "street": false, "validated": false, "lot": false, "valet": false}, "Caters": true, "HasTV": false, "RestaurantsGoodForGroups": true, "NoiseLevel": "very_loud", "RestaurantsAttire": "casual", "RestaurantsReservations": true, "OutdoorSeating": true, "BusinessAcceptsCreditCards": true, "RestaurantsPriceRange2": 2, "RestaurantsTableService": true, "RestaurantsDelivery": false, "Ambience": {"romantic": false, "intimate": false, "classy": false, "hipster": false, "divey": false, "touristy": false, "trendy": false, "upscale": false, "casual": false}, "RestaurantsTakeOut": true, "GoodForKids": true}, "categories": ["Restaurants", "Cafes", "Event Planning & Services", "American (New)", "Venues & Event Spaces"], "hours": {"Tuesday": "16:00-21:30", "Friday": "16:00-22:00", "Wednesday": "16:00-21:30", "Thursday": "16:00-21:30", "Saturday": "16:00-22:00"}}, {"business_id": "Ej91-of6EF-y0lNirxIfqA", "name": "Taco Bell", "neighborhood": "", "address": "1329 E Franklin Blvd", "city": "Gastonia", "state": "NC", "postal_code": "28054", "latitude": 35.26218, "longitude": -81.156604, "stars": 1.5, "review_count": 8, "is_open": 1, "attributes": {"GoodForMeal": {"dessert": false, "latenight": false, "lunch": false, "dinner": false, "breakfast": false, "brunch": false}, "Alcohol": "none", "HasTV": false, "RestaurantsGoodForGroups": true, "NoiseLevel": "average", "RestaurantsAttire": "casual", "RestaurantsReservations": false, "BusinessAcceptsCreditCards": true, "RestaurantsPriceRange2": 1, "RestaurantsTableService": false, "RestaurantsDelivery": false, "RestaurantsTakeOut": true, "GoodForKids": true, "DriveThru": true}, "categories": ["Restaurants", "Mexican", "Fast Food", "Tex-Mex"], "hours": {"Monday": "7:00-2:30", "Tuesday": "7:00-2:30", "Friday": "7:00-3:00", "Wednesday": "7:00-2:30", "Thursday": "7:00-2:30", "Sunday": "7:00-2:30", "Saturday": "7:00-3:00"}}, {"business_id": "QONWdAseRhzGxNM6wY4NUg", "name": "Arby's", "neighborhood": "", "address": "345 E Garrison Blvd", "city": "Gastonia", "state": "NC", "postal_code": "28054", "latitude": 35.2530287, "longitude": -81.1769904, "stars": 2.0, "review_count": 4, "is_open": 1, "attributes": {"BusinessAcceptsCreditCards": true, "RestaurantsGoodForGroups": true, "GoodForKids": true, "RestaurantsPriceRange2": 1, "RestaurantsTakeOut": true}, "categories": ["Fast Food", "Restaurants", "Fast Food"], "hours": {}}, {"business_id": "ihZIqOdjjSvNzjtCszsnww", "name": "Tex-Mex Back Road Grill", "neighborhood": "", "address": "5316 Union Rd", "city": "Gastonia", "state": "NC", "postal_code": "28056", "latitude": 35.185201, "longitude": -81.14471, "stars": 3.5, "review_count": 3, "is_open": 1, "attributes": {"GoodForMeal": {"dessert": false, "latenight": false, "lunch": false, "dinner": false, "breakfast": false, "brunch": false}, "Alcohol": "none", "HasTV": true, "NoiseLevel": "quiet", "WiFi": "no", "RestaurantsAttire": "casual", "RestaurantsReservations": false, "BusinessAcceptsCreditCards": true, "RestaurantsPriceRange2": 1, "RestaurantsDelivery": false, "Ambience": {"romantic": false, "intimate": false, "classy": false, "hipster": false, "divey": false, "touristy": false, "trendy": false, "upscale": false, "casual": false}, "RestaurantsTakeOut": true, "BusinessParking": {"garage": false, "street": false, "validated": false, "lot": false, "valet": false}}, "categories": ["Restaurants", "Comfort Food", "Breakfast & Brunch", "American (Traditional)"], "hours": {"Monday": "7:00-15:00", "Tuesday": "7:00-15:00", "Friday": "7:00-15:00", "Wednesday": "7:00-15:00", "Thursday": "7:00-15:00", "Saturday": "7:00-15:00"}}, {"business_id": "ETkMAKj_i2zGUXB8-iwZ6Q", "name": "Moe's Southwest Grill", "neighborhood": "", "address": "3908 East Franklin Blvd, Ste 100", "city": "Gastonia", "state": "NC", "postal_code": "28056", "latitude": 35.257456052, "longitude": -81.111260132, "stars": 3.5, "review_count": 17, "is_open": 1, "attributes": {"Alcohol": "beer_and_wine", "HasTV": true, "NoiseLevel": "average", "RestaurantsAttire": "casual", "BusinessAcceptsCreditCards": true, "Ambience": {"romantic": false, "intimate": false, "classy": false, "hipster": false, "divey": false, "touristy": false, "trendy": false, "upscale": false, "casual": true}, "RestaurantsGoodForGroups": true, "Caters": true, "WiFi": "free", "RestaurantsReservations": false, "RestaurantsTableService": false, "RestaurantsTakeOut": true, "GoodForKids": true, "WheelchairAccessible": true, "DogsAllowed": false, "BikeParking": true, "OutdoorSeating": true, "RestaurantsPriceRange2": 1, "RestaurantsDelivery": false, "GoodForMeal": {"dessert": false, "latenight": false, "lunch": true, "dinner": false, "breakfast": false, "brunch": false}, "BusinessParking": {"garage": false, "street": true, "validated": false, "lot": true, "valet": false}, "DriveThru": false}, "categories": ["Restaurants", "Tex-Mex", "Fast Food", "Mexican"], "hours": {"Monday": "11:00-22:00", "Tuesday": "11:00-21:00", "Friday": "11:00-22:00", "Wednesday": "11:00-21:00", "Thursday": "11:00-21:00", "Sunday": "11:00-21:00", "Saturday": "11:00-22:00"}}, {"business_id": "PcfFrGL6NgS0gqneNE8R0A", "name": "Portofino Italian Restaurant", "neighborhood": "", "address": "3736 E Franklin Blvd", "city": "Gastonia", "state": "NC", "postal_code": "28056", "latitude": 35.259418, "longitude": -81.113397, "stars": 3.5, "review_count": 61, "is_open": 1, "attributes": {"RestaurantsTableService": true, "GoodForMeal": {"dessert": false, "latenight": false, "lunch": true, "dinner": true, "breakfast": false, "brunch": false}, "Alcohol": "full_bar", "Caters": true, "HasTV": false, "RestaurantsGoodForGroups": true, "NoiseLevel": "average", "WiFi": "no", "RestaurantsAttire": "casual", "RestaurantsReservations": true, "OutdoorSeating": false, "BusinessAcceptsCreditCards": true, "RestaurantsPriceRange2": 2, "BikeParking": false, "RestaurantsDelivery": false, "Ambience": {"romantic": false, "intimate": false, "classy": false, "hipster": false, "divey": false, "touristy": false, "trendy": false, "upscale": false, "casual": true}, "RestaurantsTakeOut": true, "GoodForKids": true, "BusinessParking": {"garage": false, "street": false, "validated": false, "lot": true, "valet": false}}, "categories": ["Pizza", "Restaurants", "Italian"], "hours": {"Tuesday": "10:30-21:00", "Friday": "10:30-21:00", "Wednesday": "10:30-21:00", "Thursday": "10:30-21:00", "Sunday": "11:00-21:00", "Saturday": "10:30-21:00"}}]