[{"business_id": "gikJ3YJpat7xa1CTdMDMPw", "name": "Ruby Tuesday", "neighborhood": "", "address": "2461 Wonder Drive Ne", "city": "Kannapolis", "state": "NC", "postal_code": "28083", "latitude": 35.46455, "longitude": -80.588952, "stars": 3.0, "review_count": 30, "is_open": 1, "attributes": {"RestaurantsTableService": true, "GoodForMeal": {"dessert": false, "latenight": false, "lunch": true, "dinner": false, "breakfast": false, "brunch": false}, "Alcohol": "full_bar", "HasTV": true, "RestaurantsGoodForGroups": true, "NoiseLevel": "average", "WiFi": "free", "RestaurantsAttire": "casual", "RestaurantsReservations": true, "OutdoorSeating": false, "BusinessAcceptsCreditCards": true, "RestaurantsPriceRange2": 2, "BikeParking": false, "RestaurantsDelivery": false, "Ambience": {"romantic": false, "intimate": false, "classy": false, "hipster": false, "divey": false, "touristy": false, "trendy": false, "upscale": false, "casual": true}, "RestaurantsTakeOut": true, "GoodForKids": true, "DriveThru": false, "BusinessParking": {"garage": false, "street": false, "validated": false, "lot": false, "valet": false}}, "categories": ["American (Traditional)", "Fast Food", "Restaurants"], "hours": {"Monday": "11:00-22:00", "Tuesday": "11:00-22:00", "Friday": "11:00-22:00", "Wednesday": "11:00-22:00", "Thursday": "11:00-22:00", "Sunday": "11:00-22:00", "Saturday": "11:00-22:00"}}, {"business_id": "OF7CLTVXD5zvsi7TZ7gU0Q", "name": "Logan's Roadhouse", "neighborhood": "", "address": "2431 Wonder Dr", "city": "Kannapolis", "state": "NC", "postal_code": "28083", "latitude": 35.4651622, "longitude": -80.5885417, "stars": 3.0, "review_count": 30, "is_open": 1, "attributes": {"RestaurantsTableService": true, "GoodForMeal": {"dessert": false, "latenight": false, "lunch": true, "dinner": true, "breakfast": false, "brunch": false}, "Alcohol": "full_bar", "Caters": false, "HasTV": true, "RestaurantsGoodForGroups": true, "NoiseLevel": "loud", "WiFi": "no", "RestaurantsAttire": "casual", "RestaurantsReservations": false, "OutdoorSeating": false, "BusinessAcceptsCreditCards": true, "RestaurantsPriceRange2": 2, "BikeParking": true, "RestaurantsDelivery": false, "Ambience": {"romantic": false, "intimate": false, "classy": false, "hipster": false, "divey": false, "touristy": false, "trendy": false, "upscale": false, "casual": true}, "RestaurantsTakeOut": true, "GoodForKids": true, "WheelchairAccessible": true, "BusinessParking": {"garage": false, "street": false, "validated": false, "lot": true, "valet": false}}, "categories": ["Restaurants", "American (Traditional)", "American (New)", "Barbeque"], "hours": {"Monday": "11:00-22:00", "Tuesday": "11:00-22:00", "Friday": "11:00-23:00", "Wednesday": "11:00-22:00", "Thursday": "11:00-22:00", "Sunday": "11:00-22:00", "Saturday": "11:00-23:00"}}, {"business_id": "z7qbndwc9lH9hOR5N8ORiA", "name": "McDonald's", "neighborhood": "", "address": "5051 Bayfield Pkwy", "city": "Kannapolis", "state": "NC", "postal_code": "28027", "latitude": 35.4203126468, "longitude": -80.6755393365, "stars": 2.0, "review_count": 8, "is_open": 1, "attributes": {"GoodForMeal": {"dessert": false, "latenight": false, "lunch": false, "dinner": false, "breakfast": false, "brunch": false}, "RestaurantsTableService": false, "HasTV": false, "RestaurantsGoodForGroups": true, "WiFi": "free", "RestaurantsAttire": "casual", "RestaurantsReservations": false, "OutdoorSeating": true, "BusinessAcceptsCreditCards": true, "RestaurantsPriceRange2": 1, "BikeParking": false, "RestaurantsDelivery": false, "Ambience": {"romantic": false, "intimate": false, "classy": false, "hipster": false, "divey": false, "touristy": false, "trendy": false, "upscale": false, "casual": false}, "RestaurantsTakeOut": true, "GoodForKids": true, "DriveThru": true, "Alcohol": "none"}, "categories": ["Restaurants", "Fast Food", "Fast Food"], "hours": {"Monday": "0:00-0:00", "Tuesday": "0:00-0:00", "Friday": "0:00-0:00", "Wednesday": "0:00-0:00", "Thursday": "0:00-0:00", "Sunday": "0:00-0:00", "Saturday": "0:00-0:00"}}, {"business_id": "Zf_4RPtcZ2fXgGkuyDsRTQ", "name": "New York Pizza", "neighborhood": "", "address": "1401 North Cannon Blvd", "city": "Kannapolis", "state": "NC", "postal_code": "28083", "latitude": 35.5138841072, "longitude": -80.6104854494, "stars": 4.5, "review_count": 7, "is_open": 1, "attributes": {"BusinessAcceptsCreditCards": true, "RestaurantsGoodForGroups": false, "RestaurantsTakeOut": true, "RestaurantsReservations": false, "RestaurantsDelivery": true}, "categories": ["Pizza", "Restaurants"], "hours": {"Monday": "11:00-23:00", "Tuesday": "11:00-23:00", "Friday": "11:00-0:00", "Wednesday": "11:00-23:00", "Thursday": "11:00-23:00", "Sunday": "12:00-22:00", "Saturday": "11:00-0:00"}}, {"business_id": "zZ-1hJKJAc_zG6X8_uLbcA", "name": "Dragon Wok", "neighborhood": "", "address": "2212 Roxie St NE", "city": "Kannapolis", "state": "NC", "postal_code": "28083", "latitude": 35.4659608, "longitude": -80.5895885, "stars": 4.0, "review_count": 6, "is_open": 1, "attributes": {"GoodForMeal": {"dessert": false, "latenight": false, "lunch": false, "dinner": false, "breakfast": false, "brunch": false}, "Alcohol": "none", "HasTV": false, "GoodForKids": true, "RestaurantsAttire": "casual", "RestaurantsReservations": false, "OutdoorSeating": false, "BusinessAcceptsCreditCards": true, "RestaurantsPriceRange2": 2, "BikeParking": false, "RestaurantsDelivery": true, "Ambience": {"romantic": false, "intimate": false, "classy": false, "hipster": false, "divey": false, "touristy": false, "trendy": false, "upscale": false, "casual": false}, "RestaurantsTakeOut": true, "RestaurantsGoodForGroups": true}, "categories": ["Restaurants", "Chinese"], "hours": {}}, {"business_id": "IiYY8e_I7wFt0xo5I-6GDA", "name": "Restaurant Y Taqueria Acapulco", "neighborhood": "", "address": "530 S Cannon Blvd", "city": "Kannapolis", "state": "NC", "postal_code": "28083", "latitude": 35.487175, "longitude": -80.6115987, "stars": 4.0, "review_count": 19, "is_open": 1, "attributes": {"RestaurantsTableService": true, "GoodForMeal": {"dessert": false, "latenight": false, "lunch": true, "dinner": true, "breakfast": false, "brunch": false}, "Alcohol": "full_bar", "HasTV": true, "RestaurantsGoodForGroups": true, "NoiseLevel": "average", "WiFi": "no", "RestaurantsAttire": "casual", "RestaurantsReservations": false, "OutdoorSeating": false, "BusinessAcceptsCreditCards": true, "RestaurantsPriceRange2": 1, "BikeParking": true, "RestaurantsDelivery": false, "Ambience": {"romantic": false, "intimate": false, "classy": false, "hipster": false, "divey": false, "touristy": false, "trendy": false, "upscale": false, "casual": false}, "RestaurantsTakeOut": true, "GoodForKids": true, "BusinessParking": {"garage": false, "street": false, "validated": false, "lot": true, "valet": false}}, "categories": ["Mexican", "Restaurants"], "hours": {}}, {"business_id": "-pEtK-dm5l1-77BrP87j4A", "name": "Varsity Bar-B-Q & Ice Cream", "neighborhood": "", "address": "1907 S Cannon Blvd", "city": "Kannapolis", "state": "NC", "postal_code": "28083", "latitude": 35.4676883, "longitude": -80.6093478, "stars": 4.0, "review_count": 26, "is_open": 1, "attributes": {"RestaurantsTableService": true, "GoodForMeal": {"dessert": false, "latenight": false, "lunch": true, "dinner": true, "breakfast": false, "brunch": false}, "Alcohol": "none", "Caters": true, "HasTV": true, "RestaurantsGoodForGroups": true, "NoiseLevel": "average", "WiFi": "no", "RestaurantsAttire": "casual", "RestaurantsReservations": false, "OutdoorSeating": true, "BusinessAcceptsCreditCards": true, "RestaurantsPriceRange2": 1, "BikeParking": false, "RestaurantsDelivery": false, "Ambience": {"romantic": false, "intimate": false, "classy": false, "hipster": false, "divey": false, "touristy": false, "trendy": false, "upscale": false, "casual": true}, "RestaurantsTakeOut": true, "GoodForKids": true, "BusinessParking": {"garage": false, "street": false, "validated": false, "lot": true, "valet": false}}, "categories": ["Ice Cream & Frozen Yogurt", "Barbeque", "Food", "Restaurants", "Coffee & Tea"], "hours": {"Monday": "11:00-21:00", "Tuesday": "11:00-21:00", "Friday": "11:00-21:00", "Wednesday": "11:00-21:00", "Thursday": "11:00-21:00", "Saturday": "11:00-21:00"}}, {"business_id": "welW9Uwq_GZ1DOU7GEe7vQ", "name": "Bojangles", "neighborhood": "", "address": "1301 S Cannon Blvd", "city": "Kannapolis", "state": "NC", "postal_code": "28081", "latitude": 35.477288, "longitude": -80.610995, "stars": 4.0, "review_count": 4, "is_open": 1, "attributes": {"GoodForMeal": {"dessert": false, "latenight": false, "lunch": false, "dinner": false, "breakfast": false, "brunch": false}, "RestaurantsGoodForGroups": true, "RestaurantsAttire": "casual", "RestaurantsReservations": false, "OutdoorSeating": false, "BusinessAcceptsCreditCards": true, "RestaurantsPriceRange2": 1, "BikeParking": false, "RestaurantsDelivery": false, "Ambience": {"romantic": false, "intimate": false, "classy": false, "hipster": false, "divey": false, "touristy": false, "trendy": false, "upscale": false, "casual": false}, "RestaurantsTakeOut": true, "GoodForKids": true}, "categories": ["Restaurants", "American (New)"], "hours": {}}, {"business_id": "u5HRqJ1sRaQnIyx1hSwdhQ", "name": "Firehouse Subs", "neighborhood": "", "address": "2251 Spider Dr NE", "city": "Kannapolis", "state": "NC", "postal_code": "28083", "latitude": 35.4647175, "longitude": -80.5922036, "stars": 3.5, "review_count": 3, "is_open": 1, "attributes": {"GoodForMeal": {"dessert": false, "latenight": false, "lunch": false, "dinner": false, "breakfast": false, "brunch": false}, "Alcohol": "none", "Caters": true, "HasTV": true, "RestaurantsGoodForGroups": true, "RestaurantsAttire": "casual", "RestaurantsReservations": false, "OutdoorSeating": true, "BusinessAcceptsCreditCards": true, "RestaurantsPriceRange2": 1, "BikeParking": true, "RestaurantsDelivery": false, "Ambience": {"romantic": false, "intimate": false, "classy": false, "hipster": false, "divey": false, "touristy": false, "trendy": false, "upscale": false, "casual": false}, "RestaurantsTakeOut": true, "GoodForKids": true, "DriveThru": false, "BusinessParking": {"garage": false, "street": false, "validated": false, "lot": false, "valet": false}}, "categories": ["Fast Food", "Delis", "Restaurants", "Fast Food"], "hours": {"Monday": "10:30-21:00", "Tuesday": "10:30-21:00", "Friday": "10:30-22:00", "Wednesday": "10:30-21:00", "Thursday": "10:30-21:00", "Sunday": "10:30-21:00", "Saturday": "10:30-22:00"}}, {"business_id": "9VM6UZltNnEOMwgX_FFDmg", "name": "What-A-Burger 1", "neighborhood": "", "address": "1510 N Cannon Blvd", "city": "Kannapolis", "state": "NC", "postal_code": "28083", "latitude": 35.5166022, "longitude": -80.6111275, "stars": 3.0, "review_count": 9, "is_open": 1, "attributes": {"RestaurantsTableService": true, "GoodForMeal": {"dessert": false, "latenight": false, "lunch": false, "dinner": false, "breakfast": false, "brunch": false}, "Alcohol": "none", "Caters": false, "HasTV": false, "RestaurantsGoodForGroups": false, "NoiseLevel": "average", "WiFi": "no", "RestaurantsAttire": "casual", "RestaurantsReservations": false, "OutdoorSeating": true, "BusinessAcceptsCreditCards": false, "RestaurantsPriceRange2": 1, "BikeParking": true, "RestaurantsDelivery": false, "Ambience": {"romantic": false, "intimate": false, "classy": false, "hipster": false, "divey": false, "touristy": false, "trendy": false, "upscale": false, "casual": false}, "RestaurantsTakeOut": true, "GoodForKids": true, "BusinessParking": {"garage": false, "street": false, "validated": false, "lot": false, "valet": false}}, "categories": ["Restaurants", "American (Traditional)"], "hours": {}}, {"business_id": "dbEQV_r94EwM65t_0U1JGQ", "name": "Party House & Bakery", "neighborhood": "", "address": "1907B S Cannon Blvd", "city": "Kannapolis", "state": "NC", "postal_code": "28083", "latitude": 35.4676664, "longitude": -80.6092936, "stars": 4.0, "review_count": 4, "is_open": 1, "attributes": {"BusinessAcceptsCreditCards": true, "RestaurantsPriceRange2": 2, "BusinessParking": {"garage": false, "street": false, "validated": false, "lot": false, "valet": false}, "BikeParking": false, "RestaurantsDelivery": false}, "categories": ["Caterers", "Food", "Event Planning & Services", "Bakeries"], "hours": {}}, {"business_id": "PZ4F_Nul_xZeqB4xGxDN1w", "name": "Park Road Soda Shoppe - Kannapolis", "neighborhood": "", "address": "800 Rogers Lake Rd", "city": "Kannapolis", "state": "NC", "postal_code": "28081", "latitude": 35.4755242, "longitude": -80.6379497, "stars": 4.0, "review_count": 21, "is_open": 1, "attributes": {"GoodForMeal": {"dessert": false, "latenight": false, "lunch": false, "dinner": false, "breakfast": false, "brunch": false}, "Caters": false, "HasTV": false, "RestaurantsGoodForGroups": true, "RestaurantsAttire": "casual", "RestaurantsReservations": false, "OutdoorSeating": true, "BusinessAcceptsCreditCards": true, "RestaurantsPriceRange2": 1, "RestaurantsDelivery": false, "Ambience": {"romantic": false, "intimate": false, "classy": false, "hipster": false, "divey": false, "touristy": false, "trendy": false, "upscale": false, "casual": false}, "RestaurantsTakeOut": true, "GoodForKids": true}, "categories": ["American (Traditional)", "Restaurants"], "hours": {"Monday": "7:00-21:00", "Tuesday": "7:00-21:00", "Friday": "7:00-21:00", "Wednesday": "7:00-21:00", "Thursday": "7:00-21:00", "Saturday": "7:00-21:00"}}, {"business_id": "pAR0lYfIr2x6aq9CpqEXDQ", "name": "Los Arcos Mexican Restaurant", "neighborhood": "", "address": "1021 S Cannon Blvd", "city": "Kannapolis", "state": "NC", "postal_code": "28083", "latitude": 35.4806652, "longitude": -80.6113402, "stars": 4.5, "review_count": 17, "is_open": 1, "attributes": {"RestaurantsTableService": true, "GoodForMeal": {"dessert": false, "latenight": false, "lunch": true, "dinner": false, "breakfast": false, "brunch": false}, "Alcohol": "full_bar", "Caters": false, "HasTV": true, "RestaurantsGoodForGroups": true, "NoiseLevel": "average", "WiFi": "no", "RestaurantsAttire": "casual", "RestaurantsReservations": false, "OutdoorSeating": true, "BusinessAcceptsCreditCards": true, "RestaurantsPriceRange2": 1, "BikeParking": true, "RestaurantsDelivery": false, "Ambience": {"romantic": false, "intimate": false, "classy": false, "hipster": false, "divey": false, "touristy": false, "trendy": false, "upscale": false, "casual": true}, "RestaurantsTakeOut": true, "GoodForKids": true, "BusinessParking": {"garage": false, "street": false, "validated": false, "lot": true, "valet": false}}, "categories": ["Restaurants", "Mexican"], "hours": {}}, {"business_id": "14tE9e62U1lIu9OqORxxIg", "name": "Taco Bell", "neighborhood": "", "address": "1112 S Cannon Blvd", "city": "Kannapolis", "state": "NC", "postal_code": "28083", "latitude": 35.479334, "longitude": -80.612143, "stars": 3.0, "review_count": 5, "is_open": 1, "attributes": {}, "categories": ["Tex-Mex", "Fast Food", "Mexican", "Restaurants"], "hours": {"Monday": "10:00-0:00", "Tuesday": "10:00-0:00", "Friday": "10:00-2:00", "Wednesday": "10:00-0:00", "Thursday": "10:00-1:00", "Sunday": "10:00-0:00", "Saturday": "10:00-2:00"}}, {"business_id": "Jpv5K2gNdYROjAg4vscLUQ", "name": "Chicken King", "neighborhood": "", "address": "1127 S Cannon Blvd", "city": "Kannapolis", "state": "NC", "postal_code": "28083", "latitude": 35.4793821, "longitude": -80.6115796, "stars": 3.5, "review_count": 6, "is_open": 1, "attributes": {}, "categories": ["Restaurants", "Seafood", "Chicken Shop", "American (Traditional)"], "hours": {}}, {"business_id": "ebncQzjSDKXfB26b0t9pDw", "name": "Forty-Six", "neighborhood": "", "address": "101 W Ave", "city": "Kannapolis", "state": "NC", "postal_code": "28081", "latitude": 35.498195, "longitude": -80.624986, "stars": 4.0, "review_count": 45, "is_open": 1, "attributes": {"RestaurantsTableService": true, "GoodForMeal": {"dessert": false, "latenight": false, "lunch": true, "dinner": true, "breakfast": false, "brunch": true}, "Alcohol": "full_bar", "Caters": true, "HasTV": true, "GoodForKids": false, "NoiseLevel": "average", "WiFi": "no", "RestaurantsAttire": "casual", "RestaurantsReservations": true, "OutdoorSeating": false, "BusinessAcceptsCreditCards": true, "RestaurantsPriceRange2": 2, "BikeParking": true, "RestaurantsDelivery": false, "Ambience": {"romantic": false, "intimate": false, "classy": false, "hipster": false, "divey": false, "touristy": false, "trendy": true, "upscale": false, "casual": false}, "RestaurantsTakeOut": true, "RestaurantsGoodForGroups": true, "BusinessParking": {"garage": false, "street": true, "validated": false, "lot": false, "valet": false}}, "categories": ["Restaurants", "American (New)", "Seafood", "Breakfast & Brunch"], "hours": {}}, {"business_id": "sxOoqlIxmlKmC1yGvPx3Fw", "name": "KFC", "neighborhood": "", "address": "531 S Cannon Blvd", "city": "Kannapolis", "state": "NC", "postal_code": "28083", "latitude": 35.4968, "longitude": -80.61, "stars": 2.0, "review_count": 3, "is_open": 1, "attributes": {"Caters": true, "GoodForKids": true, "WiFi": "free", "RestaurantsReservations": false, "BusinessAcceptsCreditCards": true, "RestaurantsPriceRange2": 1, "RestaurantsDelivery": false, "RestaurantsTakeOut": true, "RestaurantsGoodForGroups": true}, "categories": ["Restaurants", "Fast Food", "American (New)"], "hours": {"Monday": "10:30-22:00", "Tuesday": "10:30-22:00", "Friday": "10:30-22:30", "Wednesday": "10:30-22:00", "Thursday": "10:30-22:00", "Sunday": "10:30-22:00", "Saturday": "10:30-22:30"}}, {"business_id": "kU49KtpEQ4c1lV9noUI9XA", "name": "Burger King", "neighborhood": "", "address": "800 N Cannon Blvd", "city": "Kannapolis", "state": "NC", "postal_code": "28083", "latitude": 35.5055086, "longitude": -80.6084237, "stars": 2.5, "review_count": 5, "is_open": 1, "attributes": {"BusinessAcceptsCreditCards": true, "GoodForMeal": {"dessert": false, "latenight": false, "lunch": false, "dinner": false, "breakfast": false, "brunch": false}, "RestaurantsReservations": false}, "categories": ["Fast Food", "Fast Food", "Restaurants"], "hours": {"Monday": "6:00-0:00", "Tuesday": "6:00-0:00", "Friday": "6:00-0:00", "Wednesday": "6:00-0:00", "Thursday": "6:00-0:00", "Sunday": "6:00-0:00", "Saturday": "6:00-0:00"}}, {"business_id": "_HhZV5S7sypfcE2AcEkL4w", "name": "Steak 'n Shake", "neighborhood": "", "address": "2291 Spider Dr", "city": "Kannapolis", "state": "NC", "postal_code": "28083", "latitude": 35.4653701, "longitude": -80.5897481, "stars": 2.5, "review_count": 34, "is_open": 1, "attributes": {"RestaurantsTableService": true, "GoodForMeal": {"dessert": true, "latenight": false, "lunch": false, "dinner": false, "breakfast": true, "brunch": false}, "Alcohol": "none", "Caters": false, "HasTV": false, "RestaurantsGoodForGroups": true, "NoiseLevel": "average", "WiFi": "no", "RestaurantsAttire": "casual", "RestaurantsReservations": false, "OutdoorSeating": false, "BusinessAcceptsCreditCards": true, "RestaurantsPriceRange2": 1, "WheelchairAccessible": true, "BikeParking": false, "RestaurantsDelivery": false, "Ambience": {"romantic": false, "intimate": false, "classy": false, "hipster": false, "divey": false, "touristy": false, "trendy": false, "upscale": false, "casual": false}, "RestaurantsTakeOut": true, "GoodForKids": true, "DriveThru": true, "BusinessParking": {"garage": false, "street": false, "validated": false, "lot": false, "valet": false}}, "categories": ["Fast Food", "Restaurants", "Diners"], "hours": {"Monday": "0:00-0:00", "Tuesday": "0:00-0:00", "Friday": "0:00-0:00", "Wednesday": "0:00-0:00", "Thursday": "0:00-0:00", "Sunday": "0:00-0:00", "Saturday": "0:00-0:00"}}, {"business_id": "qmM-u1B1UwHfBt62dyqT3A", "name": "Lee's Sandwich Shop", "neighborhood": "", "address": "902 Central Dr", "city": "Kannapolis", "state": "NC", "postal_code": "28083", "latitude": 35.502869, "longitude": -80.6079914, "stars": 4.5, "review_count": 7, "is_open": 1, "attributes": {"Alcohol": "none", "HasTV": true, "NoiseLevel": "average", "RestaurantsAttire": "casual", "BusinessAcceptsCreditCards": true, "Ambience": {"romantic": false, "intimate": false, "classy": false, "hipster": false, "divey": false, "touristy": false, "trendy": false, "upscale": false, "casual": false}, "RestaurantsGoodForGroups": false, "Caters": true, "WiFi": "free", "RestaurantsReservations": false, "BusinessAcceptsBitcoin": false, "RestaurantsTableService": true, "RestaurantsTakeOut": true, "GoodForKids": true, "WheelchairAccessible": true, "DogsAllowed": false, "BikeParking": true, "OutdoorSeating": false, "RestaurantsPriceRange2": 1, "RestaurantsDelivery": false, "GoodForMeal": {"dessert": false, "latenight": false, "lunch": false, "dinner": false, "breakfast": true, "brunch": false}, "BusinessParking": {"garage": false, "street": true, "validated": false, "lot": true, "valet": false}}, "categories": ["Fast Food", "Restaurants"], "hours": {"Tuesday": "6:00-19:00", "Friday": "6:00-19:00", "Wednesday": "6:00-19:00", "Thursday": "6:00-19:00", "Saturday": "6:00-14:00"}}, {"business_id": "3vr3DyqH5XwDgNAAK4a9ug", "name": "Village Grill", "neighborhood": "", "address": "141 West Ave", "city": "Kannapolis", "state": "NC", "postal_code": "28081", "latitude": 35.4972434, "longitude": -80.625874, "stars": 2.0, "review_count": 4, "is_open": 1, "attributes": {"RestaurantsTableService": true, "GoodForMeal": {"dessert": false, "latenight": false, "lunch": true, "dinner": false, "breakfast": false, "brunch": true}, "Alcohol": "none", "Caters": true, "HasTV": true, "RestaurantsGoodForGroups": true, "NoiseLevel": "average", "WiFi": "no", "RestaurantsAttire": "casual", "RestaurantsReservations": false, "OutdoorSeating": true, "BusinessAcceptsCreditCards": true, "RestaurantsPriceRange2": 1, "BikeParking": true, "RestaurantsDelivery": false, "Ambience": {"romantic": false, "intimate": false, "classy": false, "hipster": false, "divey": false, "touristy": false, "trendy": false, "upscale": false, "casual": false}, "RestaurantsTakeOut": true, "GoodForKids": true, "DriveThru": true, "BusinessParking": {"garage": false, "street": false, "validated": false, "lot": false, "valet": false}}, "categories": ["Fast Food", "Restaurants"], "hours": {"Friday": "10:00-14:30", "Tuesday": "10:00-14:30", "Thursday": "10:00-14:30", "Wednesday": "10:00-14:30", "Monday": "10:00-14:30"}}, {"business_id": "JZGObzUxfOsotOkp1pecdQ", "name": "Crispys Bar And Grill", "neighborhood": "", "address": "3399 Cloverleaf Pkwy", "city": "Kannapolis", "state": "NC", "postal_code": "28083", "latitude": 35.4499762479, "longitude": -80.6008656465, "stars": 4.5, "review_count": 61, "is_open": 1, "attributes": {"Alcohol": "beer_and_wine", "HasTV": true, "NoiseLevel": "average", "RestaurantsAttire": "casual", "BusinessAcceptsCreditCards": true, "Music": {"dj": false, "background_music": true, "no_music": false, "karaoke": false, "live": false, "video": false, "jukebox": false}, "Ambience": {"romantic": false, "intimate": false, "classy": false, "hipster": false, "divey": true, "touristy": false, "trendy": false, "upscale": false, "casual": false}, "RestaurantsGoodForGroups": true, "Caters": true, "WiFi": "free", "RestaurantsReservations": false, "RestaurantsTableService": false, "RestaurantsTakeOut": true, "GoodForKids": true, "HappyHour": false, "GoodForDancing": false, "DogsAllowed": true, "BikeParking": true, "OutdoorSeating": true, "RestaurantsPriceRange2": 2, "RestaurantsDelivery": false, "BestNights": {"monday": false, "tuesday": false, "friday": false, "wednesday": false, "thursday": false, "sunday": false, "saturday": true}, "GoodForMeal": {"dessert": true, "latenight": false, "lunch": true, "dinner": true, "breakfast": false, "brunch": false}, "BusinessParking": {"garage": false, "street": false, "validated": false, "lot": true, "valet": false}, "CoatCheck": false, "Smoking": "outdoor", "WheelchairAccessible": true}, "categories": ["American (Traditional)", "Pubs", "Nightlife", "American (New)", "Bars", "Food", "Beer", "Wine & Spirits", "Restaurants"], "hours": {"Tuesday": "11:00-21:00", "Friday": "11:00-22:00", "Wednesday": "11:00-21:00", "Thursday": "11:00-21:00", "Sunday": "11:00-14:00", "Saturday": "11:00-22:00"}}, {"business_id": "zenqYOv9U2pXb-dwzETIXg", "name": "South China Restaurant", "neighborhood": "", "address": "1756 S Cannon Blvd", "city": "Kannapolis", "state": "NC", "postal_code": "28083", "latitude": 35.4700625, "longitude": -80.6113392, "stars": 2.0, "review_count": 9, "is_open": 1, "attributes": {"GoodForMeal": {"dessert": false, "latenight": false, "lunch": false, "dinner": false, "breakfast": false, "brunch": false}, "BusinessParking": {"garage": false, "street": false, "validated": false, "lot": false, "valet": false}, "HasTV": true, "RestaurantsGoodForGroups": false, "RestaurantsAttire": "casual", "RestaurantsReservations": false, "OutdoorSeating": false, "BusinessAcceptsCreditCards": true, "RestaurantsPriceRange2": 2, "RestaurantsTableService": false, "RestaurantsDelivery": true, "Ambience": {"romantic": false, "intimate": false, "classy": false, "hipster": false, "divey": false, "touristy": false, "trendy": false, "upscale": false, "casual": false}, "RestaurantsTakeOut": true, "GoodForKids": true}, "categories": ["Restaurants", "Chinese"], "hours": {"Monday": "11:00-22:30", "Tuesday": "11:00-22:30", "Friday": "11:00-23:00", "Wednesday": "11:00-22:30", "Thursday": "11:00-22:30", "Sunday": "11:00-22:00", "Saturday": "11:00-23:00"}}, {"business_id": "xswOBJzAg4MtfDjbYWjx1A", "name": "East Coast Wings & Grill", "neighborhood": "", "address": "2263 Spider Dr", "city": "Kannapolis", "state": "NC", "postal_code": "28083", "latitude": 35.464626, "longitude": -80.591998, "stars": 3.5, "review_count": 39, "is_open": 1, "attributes": {"RestaurantsTableService": true, "GoodForMeal": {"dessert": false, "latenight": false, "lunch": true, "dinner": true, "breakfast": false, "brunch": false}, "Alcohol": "full_bar", "Caters": true, "HasTV": true, "RestaurantsGoodForGroups": true, "NoiseLevel": "average", "WiFi": "free", "RestaurantsAttire": "casual", "RestaurantsReservations": false, "OutdoorSeating": true, "BusinessAcceptsCreditCards": true, "RestaurantsPriceRange2": 2, "BikeParking": true, "RestaurantsDelivery": false, "Ambience": {"romantic": false, "intimate": false, "classy": false, "hipster": false, "divey": false, "touristy": false, "trendy": false, "upscale": false, "casual": true}, "RestaurantsTakeOut": true, "GoodForKids": true, "WheelchairAccessible": false, "BusinessParking": {"garage": false, "street": false, "validated": false, "lot": true, "valet": false}}, "categories": ["American (New)", "Fast Food", "Fast Food", "Restaurants"], "hours": {"Monday": "11:00-22:00", "Tuesday": "11:00-22:00", "Friday": "11:00-23:00", "Wednesday": "11:00-22:00", "Thursday": "11:00-22:00", "Sunday": "12:00-22:00", "Saturday": "12:00-23:00"}}, {"business_id": "EYjSO5-hChdb19WDSAA82w", "name": "Golden Dragon", "neighborhood": "", "address": "2300 S Cannon Blvd", "city": "Kannapolis", "state": "NC", "postal_code": "28083", "latitude": 35.463106, "longitude": -80.60965, "stars": 4.0, "review_count": 5, "is_open": 1, "attributes": {"GoodForMeal": {"dessert": false, "latenight": false, "lunch": false, "dinner": false, "breakfast": false, "brunch": false}, "BusinessParking": {"garage": false, "street": false, "validated": false, "lot": true, "valet": false}, "HasTV": false, "RestaurantsGoodForGroups": true, "NoiseLevel": "quiet", "RestaurantsAttire": "casual", "RestaurantsReservations": true, "OutdoorSeating": false, "BusinessAcceptsCreditCards": true, "RestaurantsPriceRange2": 2, "BikeParking": true, "RestaurantsDelivery": false, "Ambience": {"romantic": false, "intimate": false, "classy": false, "hipster": false, "divey": false, "touristy": false, "trendy": false, "upscale": false, "casual": false}, "RestaurantsTakeOut": true, "GoodForKids": true, "RestaurantsTableService": true}, "categories": ["Restaurants", "Chinese", "American (Traditional)"], "hours": {"Tuesday": "11:00-21:30", "Friday": "11:00-21:30", "Wednesday": "11:00-21:30", "Thursday": "11:00-21:30", "Sunday": "12:00-21:30", "Saturday": "11:00-21:30"}}, {"business_id": "Ypwfr4GQNCx__JCyzG9tEA", "name": "Town House II", "neighborhood": "", "address": "1870 S Main St", "city": "Kannapolis", "state": "NC", "postal_code": "28081", "latitude": 35.4677565, "longitude": -80.623497, "stars": 3.5, "review_count": 7, "is_open": 1, "attributes": {"GoodForMeal": {"dessert": false, "latenight": false, "lunch": false, "dinner": false, "breakfast": false, "brunch": false}, "HasTV": false, "RestaurantsGoodForGroups": true, "WiFi": "free", "RestaurantsAttire": "casual", "RestaurantsReservations": false, "BusinessAcceptsCreditCards": true, "RestaurantsPriceRange2": 1, "BikeParking": false, "RestaurantsDelivery": false, "RestaurantsTakeOut": true, "GoodForKids": true}, "categories": ["Soul Food", "American (New)", "Restaurants"], "hours": {"Monday": "5:00-18:00", "Tuesday": "5:00-18:00", "Friday": "5:00-18:00", "Wednesday": "5:00-18:00", "Thursday": "5:00-18:00", "Saturday": "5:00-14:00"}}, {"business_id": "MNwJ-40jcDZakqEQP4bk4g", "name": "China Buffet", "neighborhood": "", "address": "803 N Cannon Blvd", "city": "Kannapolis", "state": "NC", "postal_code": "28083", "latitude": 35.5058955, "longitude": -80.6096779, "stars": 3.5, "review_count": 14, "is_open": 1, "attributes": {"Alcohol": "beer_and_wine", "HasTV": false, "NoiseLevel": "average", "RestaurantsAttire": "casual", "BusinessAcceptsCreditCards": true, "Ambience": {"romantic": false, "intimate": false, "classy": false, "hipster": false, "divey": false, "touristy": false, "trendy": false, "upscale": false, "casual": false}, "RestaurantsGoodForGroups": true, "Caters": true, "WiFi": "no", "RestaurantsReservations": true, "BusinessAcceptsBitcoin": false, "RestaurantsTableService": true, "RestaurantsTakeOut": true, "GoodForKids": true, "WheelchairAccessible": true, "DogsAllowed": false, "BikeParking": false, "OutdoorSeating": false, "RestaurantsPriceRange2": 1, "RestaurantsDelivery": false, "GoodForMeal": {"dessert": false, "latenight": false, "lunch": true, "dinner": true, "breakfast": false, "brunch": false}, "BusinessParking": {"garage": false, "street": false, "validated": false, "lot": true, "valet": false}}, "categories": ["Japanese", "Japanese", "Teppanyaki", "Chinese", "Restaurants"], "hours": {"Monday": "11:00-21:30", "Tuesday": "11:00-21:30", "Friday": "11:00-22:30", "Wednesday": "11:00-21:30", "Thursday": "11:00-21:30", "Sunday": "11:00-21:30", "Saturday": "11:00-22:30"}}, {"business_id": "O4kDYXp3BPN_kYcGLy914w", "name": "Cicis", "neighborhood": "", "address": "1000 Cloverleaf Plz", "city": "Kannapolis", "state": "NC", "postal_code": "28083", "latitude": 35.4514663905, "longitude": -80.6060115248, "stars": 3.5, "review_count": 3, "is_open": 1, "attributes": {"GoodForMeal": {"dessert": false, "latenight": false, "lunch": false, "dinner": false, "breakfast": false, "brunch": false}, "RestaurantsGoodForGroups": true, "RestaurantsAttire": "casual", "RestaurantsReservations": true, "OutdoorSeating": false, "BusinessAcceptsCreditCards": true, "RestaurantsPriceRange2": 2, "BikeParking": true, "RestaurantsDelivery": false, "RestaurantsTakeOut": false, "GoodForKids": true}, "categories": ["American (New)", "Pizza", "Restaurants", "Food", "American (Traditional)", "Desserts"], "hours": {"Monday": "11:00-21:00", "Tuesday": "11:00-21:00", "Friday": "11:00-22:00", "Wednesday": "11:00-21:00", "Thursday": "11:00-21:00", "Sunday": "11:00-21:00", "Saturday": "11:00-22:00"}}, {"business_id": "R7SGIJ-Lw2ZLLSWu6OTUbA", "name": "Taco Bell", "neighborhood": "", "address": "2281 Spider Dr.", "city": "Kannapolis", "state": "NC", "postal_code": "28083", "latitude": 35.466229, "longitude": -80.588704, "stars": 3.5, "review_count": 7, "is_open": 1, "attributes": {"GoodForMeal": {"dessert": false, "latenight": false, "lunch": false, "dinner": false, "breakfast": false, "brunch": false}, "HasTV": false, "RestaurantsGoodForGroups": true, "RestaurantsAttire": "casual", "RestaurantsReservations": false, "OutdoorSeating": false, "BusinessAcceptsCreditCards": true, "RestaurantsPriceRange2": 1, "RestaurantsDelivery": false, "RestaurantsTakeOut": true, "GoodForKids": true, "DriveThru": true}, "categories": ["Fast Food", "Restaurants", "Mexican", "Tex-Mex"], "hours": {"Monday": "7:00-1:00", "Tuesday": "7:00-1:00", "Friday": "7:00-2:00", "Wednesday": "7:00-1:00", "Thursday": "7:00-1:00", "Sunday": "7:00-1:00", "Saturday": "7:00-2:00"}}, {"business_id": "Y6WzOH0Zv8vu-H78_b6ghQ", "name": "Flyin Buffalo", "neighborhood": "", "address": "802 Sloop Ave", "city": "Kannapolis", "state": "NC", "postal_code": "28083", "latitude": 35.505556, "longitude": -80.6073532, "stars": 4.5, "review_count": 8, "is_open": 1, "attributes": {"GoodForMeal": {"dessert": false, "latenight": false, "lunch": false, "dinner": false, "breakfast": false, "brunch": false}, "Alcohol": "none", "Caters": true, "HasTV": true, "RestaurantsGoodForGroups": false, "NoiseLevel": "quiet", "WiFi": "free", "RestaurantsAttire": "casual", "RestaurantsReservations": false, "OutdoorSeating": false, "BusinessAcceptsCreditCards": true, "RestaurantsPriceRange2": 1, "RestaurantsTableService": false, "RestaurantsDelivery": true, "Ambience": {"romantic": false, "intimate": false, "classy": false, "hipster": false, "divey": false, "touristy": false, "trendy": false, "upscale": false, "casual": true}, "RestaurantsTakeOut": true, "GoodForKids": true, "BusinessParking": {"garage": false, "street": false, "validated": false, "lot": false, "valet": false}}, "categories": ["Italian", "Diners", "Food Delivery Services", "American (New)", "Pizza", "Restaurants", "Food"], "hours": {"Monday": "11:00-21:00", "Tuesday": "11:00-21:00", "Friday": "11:00-21:00", "Wednesday": "11:00-21:00", "Thursday": "11:00-21:00", "Saturday": "11:00-21:00"}}, {"business_id": "8ONIgnNHGS_2USuaLcHdxQ", "name": "Sunshine's Asian Cuisine", "neighborhood": "", "address": "215 West A St", "city": "Kannapolis", "state": "NC", "postal_code": "28081", "latitude": 35.4976436, "longitude": -80.6259988, "stars": 3.5, "review_count": 22, "is_open": 1, "attributes": {"RestaurantsTableService": true, "GoodForMeal": {"dessert": false, "latenight": false, "lunch": true, "dinner": false, "breakfast": false, "brunch": false}, "Alcohol": "none", "HasTV": true, "RestaurantsGoodForGroups": true, "NoiseLevel": "average", "WiFi": "no", "RestaurantsAttire": "casual", "RestaurantsReservations": false, "OutdoorSeating": true, "BusinessAcceptsCreditCards": true, "RestaurantsPriceRange2": 2, "BikeParking": true, "RestaurantsDelivery": false, "Ambience": {"romantic": false, "intimate": false, "classy": false, "hipster": false, "divey": false, "touristy": false, "trendy": false, "upscale": false, "casual": false}, "RestaurantsTakeOut": true, "GoodForKids": true, "BusinessParking": {"garage": false, "street": false, "validated": false, "lot": false, "valet": false}}, "categories": ["Thai", "Asian Fusion", "Restaurants"], "hours": {"Monday": "11:00-21:00", "Tuesday": "11:00-21:00", "Friday": "11:00-21:00", "Wednesday": "11:00-21:00", "Thursday": "11:00-21:00", "Saturday": "11:00-21:00"}}, {"business_id": "cd5CdIqgZUVrkvf9kf_BBA", "name": "Pizza Hut", "neighborhood": "", "address": "901 N Cannon Blvd", "city": "Kannapolis", "state": "NC", "postal_code": "28083", "latitude": 35.5066521, "longitude": -80.609455, "stars": 3.0, "review_count": 5, "is_open": 1, "attributes": {"BusinessParking": {"garage": false, "street": false, "validated": false, "lot": false, "valet": false}, "Caters": false, "HasTV": true, "RestaurantsAttire": "casual", "RestaurantsReservations": false, "BusinessAcceptsCreditCards": true, "RestaurantsDelivery": true, "RestaurantsTakeOut": true, "WheelchairAccessible": false}, "categories": ["Italian", "Restaurants", "American (New)", "Pizza"], "hours": {"Monday": "11:00-23:00", "Tuesday": "11:00-23:00", "Friday": "11:00-1:00", "Wednesday": "11:00-23:00", "Thursday": "11:00-23:00", "Sunday": "11:00-23:00", "Saturday": "11:00-1:00"}}, {"business_id": "NwlAFYcFl2wmViUcX3mMZQ", "name": "China Kitchen", "neighborhood": "", "address": "2115 N Cannon Blvd", "city": "Kannapolis", "state": "NC", "postal_code": "28083", "latitude": 35.5233633, "longitude": -80.61194, "stars": 3.0, "review_count": 3, "is_open": 1, "attributes": {"BusinessAcceptsCreditCards": true, "RestaurantsGoodForGroups": true, "GoodForKids": true, "RestaurantsTakeOut": true, "RestaurantsDelivery": true}, "categories": ["Restaurants", "Chinese"], "hours": {}}, {"business_id": "XQqugSurkmFjmByzd0ZsLg", "name": "Pizza Hut", "neighborhood": "", "address": "6031 Gateway Center Dr, Ste 1", "city": "Kannapolis", "state": "NC", "postal_code": "28081", "latitude": 35.4372647, "longitude": -80.6789738, "stars": 3.0, "review_count": 5, "is_open": 1, "attributes": {"Alcohol": "none", "Caters": false, "HasTV": false, "NoiseLevel": "quiet", "RestaurantsAttire": "casual", "RestaurantsReservations": false, "OutdoorSeating": false, "BusinessAcceptsCreditCards": true, "RestaurantsPriceRange2": 1, "RestaurantsTableService": false, "RestaurantsDelivery": true, "Ambience": {"romantic": false, "intimate": false, "classy": false, "hipster": false, "divey": false, "touristy": false, "trendy": false, "upscale": false, "casual": false}, "RestaurantsTakeOut": true, "RestaurantsGoodForGroups": true, "WheelchairAccessible": false, "BusinessParking": {"garage": false, "street": false, "validated": false, "lot": false, "valet": false}}, "categories": ["Pizza", "American (New)", "Restaurants", "Italian"], "hours": {}}, {"business_id": "aiSfc14ci0YqzIiZ6CEXIQ", "name": "What-A-Burger", "neighborhood": "", "address": "926 S Main St", "city": "Kannapolis", "state": "NC", "postal_code": "28081", "latitude": 35.4820789, "longitude": -80.6273759, "stars": 3.5, "review_count": 9, "is_open": 1, "attributes": {"GoodForMeal": {"dessert": false, "latenight": false, "lunch": false, "dinner": false, "breakfast": false, "brunch": false}, "Alcohol": "none", "HasTV": false, "RestaurantsGoodForGroups": true, "NoiseLevel": "average", "RestaurantsAttire": "casual", "RestaurantsReservations": false, "OutdoorSeating": true, "BusinessAcceptsCreditCards": false, "RestaurantsPriceRange2": 1, "BikeParking": false, "RestaurantsDelivery": false, "Ambience": {"romantic": false, "intimate": false, "classy": false, "hipster": false, "divey": false, "touristy": false, "trendy": false, "upscale": false, "casual": false}, "RestaurantsTakeOut": true, "GoodForKids": true, "DriveThru": true, "BusinessParking": {"garage": false, "street": false, "validated": false, "lot": false, "valet": false}}, "categories": ["Restaurants", "Fast Food"], "hours": {}}, {"business_id": "2Tgu3A5MIAceb8XqK5vfoA", "name": "Fresh Off the Grill", "neighborhood": "", "address": "2630 Dale Earnhardt Blvd", "city": "Kannapolis", "state": "NC", "postal_code": "28027", "latitude": 35.473149, "longitude": -80.599276, "stars": 3.5, "review_count": 7, "is_open": 1, "attributes": {"RestaurantsTableService": true, "GoodForMeal": {"dessert": false, "latenight": false, "lunch": false, "dinner": false, "breakfast": false, "brunch": false}, "Alcohol": "none", "Caters": true, "HasTV": true, "RestaurantsGoodForGroups": false, "WiFi": "free", "RestaurantsAttire": "casual", "RestaurantsReservations": false, "OutdoorSeating": false, "BusinessAcceptsCreditCards": true, "RestaurantsPriceRange2": 1, "BikeParking": true, "RestaurantsDelivery": false, "Ambience": {"romantic": false, "intimate": false, "classy": false, "hipster": false, "divey": false, "touristy": false, "trendy": false, "upscale": false, "casual": false}, "RestaurantsTakeOut": true, "GoodForKids": true, "WheelchairAccessible": true, "BusinessParking": {"garage": false, "street": false, "validated": false, "lot": true, "valet": false}}, "categories": ["Restaurants", "Fast Food", "Fast Food"], "hours": {"Monday": "10:00-21:00", "Tuesday": "10:00-21:00", "Friday": "10:00-21:00", "Wednesday": "10:00-21:00", "Thursday": "10:00-21:00", "Sunday": "11:00-15:00", "Saturday": "10:00-21:00"}}, {"business_id": "x6LzkLGffOjnqTVPTWao-Q", "name": "McDonald's", "neighborhood": "", "address": "350 S Cannon Blvd", "city": "Kannapolis", "state": "NC", "postal_code": "28083", "latitude": 35.4906612, "longitude": -80.6115602, "stars": 1.5, "review_count": 3, "is_open": 1, "attributes": {}, "categories": ["Fast Food", "Fast Food", "Restaurants"], "hours": {}}, {"business_id": "BE04tjYHMhaHRQbAiJ9JTg", "name": "Dunkin' Donuts", "neighborhood": "", "address": "2267 Spider Dr NE", "city": "Kannapolis", "state": "NC", "postal_code": "28083", "latitude": 35.4646775311, "longitude": -80.5921291057, "stars": 2.5, "review_count": 7, "is_open": 1, "attributes": {"BusinessParking": {"garage": false, "street": false, "validated": false, "lot": false, "valet": false}, "WiFi": "free", "BusinessAcceptsCreditCards": true, "RestaurantsPriceRange2": 1, "BikeParking": true, "RestaurantsTakeOut": true}, "categories": ["Restaurants", "Breakfast", "Coffee & Tea", "Food"], "hours": {}}, {"business_id": "lUyFNMFliw5DFd4eYiGLhw", "name": "Chon Ching Chinese Restaurant", "neighborhood": "", "address": "11118 Renaissance Dr", "city": "Kannapolis", "state": "NC", "postal_code": "28081", "latitude": 35.4425236, "longitude": -80.762014, "stars": 3.5, "review_count": 5, "is_open": 1, "attributes": {"RestaurantsGoodForGroups": false, "BusinessAcceptsCreditCards": true, "RestaurantsAttire": "casual", "GoodForKids": true, "RestaurantsTakeOut": true}, "categories": ["Restaurants", "Chinese"], "hours": {}}, {"business_id": "XeF3jqk2a5r6R_clrSZ71Q", "name": "IHOP", "neighborhood": "", "address": "800 Cloverleaf Plz", "city": "Kannapolis", "state": "NC", "postal_code": "28083", "latitude": 35.4502359, "longitude": -80.6091963, "stars": 3.0, "review_count": 19, "is_open": 1, "attributes": {"RestaurantsTableService": true, "GoodForMeal": {"dessert": false, "latenight": false, "lunch": true, "dinner": false, "breakfast": true, "brunch": true}, "Alcohol": "none", "Caters": false, "HasTV": false, "RestaurantsGoodForGroups": true, "NoiseLevel": "average", "WiFi": "free", "RestaurantsAttire": "casual", "RestaurantsReservations": false, "OutdoorSeating": false, "BusinessAcceptsCreditCards": true, "RestaurantsPriceRange2": 1, "BikeParking": false, "RestaurantsDelivery": false, "Ambience": {"romantic": false, "intimate": false, "classy": false, "hipster": false, "divey": false, "touristy": false, "trendy": false, "upscale": false, "casual": true}, "RestaurantsTakeOut": true, "GoodForKids": true, "BusinessParking": {"garage": false, "street": false, "validated": false, "lot": false, "valet": false}}, "categories": ["American (New)", "Restaurants", "Breakfast & Brunch", "American (Traditional)"], "hours": {"Monday": "6:00-0:00", "Tuesday": "6:00-0:00", "Friday": "0:00-0:00", "Wednesday": "6:00-0:00", "Thursday": "6:00-0:00", "Sunday": "6:00-0:00", "Saturday": "0:00-0:00"}}, {"business_id": "AQE4MruPY5cZDfLmLmd4ig", "name": "Zaxby's Chicken Fingers & Buffalo Wings", "neighborhood": "", "address": "6044 Glen Afton Blvd", "city": "Kannapolis", "state": "NC", "postal_code": "28027", "latitude": 35.4217324, "longitude": -80.6777652, "stars": 3.5, "review_count": 4, "is_open": 1, "attributes": {"GoodForMeal": {"dessert": false, "latenight": false, "lunch": false, "dinner": false, "breakfast": false, "brunch": false}, "HasTV": false, "RestaurantsGoodForGroups": true, "RestaurantsAttire": "casual", "RestaurantsReservations": false, "BusinessAcceptsCreditCards": true, "RestaurantsPriceRange2": 1, "RestaurantsDelivery": false, "Ambience": {"romantic": false, "intimate": false, "classy": false, "hipster": false, "divey": false, "touristy": false, "trendy": false, "upscale": false, "casual": false}, "RestaurantsTakeOut": true, "GoodForKids": true, "DriveThru": true}, "categories": ["Fast Food", "Fast Food", "American (New)", "American (Traditional)", "Restaurants"], "hours": {"Monday": "10:30-22:00", "Tuesday": "10:30-22:00", "Friday": "10:30-23:00", "Wednesday": "10:30-22:00", "Thursday": "10:30-22:00", "Sunday": "11:00-22:00", "Saturday": "10:30-23:00"}}, {"business_id": "g1_t8esXWq1OA1dbtTJBpA", "name": "Papa John's Pizza", "neighborhood": "", "address": "1515 S Cannon Blvd", "city": "Kannapolis", "state": "NC", "postal_code": "28083", "latitude": 35.4733764, "longitude": -80.6102248, "stars": 4.0, "review_count": 4, "is_open": 1, "attributes": {"BusinessAcceptsCreditCards": true, "RestaurantsGoodForGroups": false, "GoodForKids": false, "RestaurantsTakeOut": true, "RestaurantsDelivery": true}, "categories": ["Restaurants", "Pizza"], "hours": {"Monday": "9:00-23:00", "Tuesday": "9:00-23:00", "Friday": "9:00-23:00", "Wednesday": "9:00-23:00", "Thursday": "9:00-23:00", "Sunday": "10:00-23:00", "Saturday": "9:00-23:00"}}, {"business_id": "MJr8aeWhwTvpLz0mrX5hCw", "name": "Main Street Pizzaria", "neighborhood": "", "address": "924 S Main St", "city": "Kannapolis", "state": "NC", "postal_code": "28081", "latitude": 35.4824353232, "longitude": -80.6271503493, "stars": 4.0, "review_count": 18, "is_open": 1, "attributes": {"GoodForMeal": {"dessert": false, "latenight": false, "lunch": false, "dinner": false, "breakfast": false, "brunch": false}, "BusinessParking": {"garage": false, "street": false, "validated": false, "lot": false, "valet": false}, "HasTV": true, "RestaurantsGoodForGroups": true, "NoiseLevel": "average", "WiFi": "no", "RestaurantsAttire": "casual", "RestaurantsReservations": false, "OutdoorSeating": false, "BusinessAcceptsCreditCards": true, "RestaurantsPriceRange2": 2, "BikeParking": false, "RestaurantsDelivery": true, "Ambience": {"romantic": false, "intimate": false, "classy": false, "hipster": false, "divey": false, "touristy": false, "trendy": false, "upscale": false, "casual": false}, "RestaurantsTakeOut": true, "GoodForKids": true}, "categories": ["Italian", "Restaurants", "Pizza"], "hours": {"Monday": "11:00-22:00", "Tuesday": "11:00-22:00", "Friday": "11:00-23:00", "Wednesday": "11:00-22:00", "Thursday": "11:00-22:00", "Sunday": "12:00-21:00", "Saturday": "11:00-23:00"}}, {"business_id": "YZut65QYlleMr7scyV_QSQ", "name": "Arby's", "neighborhood": "", "address": "1315 S Cannon Blvd", "city": "Kannapolis", "state": "NC", "postal_code": "28083", "latitude": 35.4762339, "longitude": -80.610818, "stars": 1.5, "review_count": 4, "is_open": 1, "attributes": {"BusinessParking": {"garage": false, "street": false, "validated": false, "lot": false, "valet": false}, "RestaurantsAttire": "casual", "RestaurantsReservations": false, "OutdoorSeating": false, "RestaurantsTableService": false, "RestaurantsTakeOut": true}, "categories": ["Fast Food", "Restaurants", "Fast Food"], "hours": {}}, {"business_id": "nz_rpzkoMFxdmpxxY1JhPg", "name": "McDonald's", "neighborhood": "", "address": "2401 Wonder Dr", "city": "Kannapolis", "state": "NC", "postal_code": "28083", "latitude": 35.4657956, "longitude": -80.5889415, "stars": 2.5, "review_count": 5, "is_open": 1, "attributes": {"GoodForMeal": {"dessert": false, "latenight": false, "lunch": false, "dinner": false, "breakfast": false, "brunch": false}, "GoodForKids": true, "RestaurantsReservations": false, "BusinessAcceptsCreditCards": true, "RestaurantsTableService": false, "RestaurantsDelivery": false, "RestaurantsTakeOut": true, "RestaurantsGoodForGroups": true}, "categories": ["Fast Food", "Fast Food", "Restaurants"], "hours": {}}, {"business_id": "abUwRfryYJwmcdp1nVKGPg", "name": "Casa Grande Mexican Restaurant", "neighborhood": "", "address": "2206 Roxie St NE", "city": "Kannapolis", "state": "NC", "postal_code": "28083", "latitude": 35.4638277, "longitude": -80.5954065, "stars": 3.5, "review_count": 19, "is_open": 1, "attributes": {"RestaurantsTableService": true, "GoodForMeal": {"dessert": false, "latenight": false, "lunch": true, "dinner": true, "breakfast": false, "brunch": false}, "DogsAllowed": true, "Alcohol": "full_bar", "Caters": true, "HasTV": true, "RestaurantsGoodForGroups": true, "NoiseLevel": "average", "WiFi": "no", "RestaurantsAttire": "casual", "RestaurantsReservations": false, "OutdoorSeating": false, "BusinessAcceptsCreditCards": true, "RestaurantsPriceRange2": 1, "BikeParking": false, "RestaurantsDelivery": false, "Ambience": {"romantic": false, "intimate": false, "classy": false, "hipster": false, "divey": false, "touristy": false, "trendy": false, "upscale": false, "casual": true}, "RestaurantsTakeOut": true, "GoodForKids": true, "WheelchairAccessible": true, "BusinessParking": {"garage": false, "street": false, "validated": false, "lot": true, "valet": false}}, "categories": ["Mexican", "Restaurants"], "hours": {}}, {"business_id": "TDFNuRJ_45hW18mu-V12JQ", "name": "El Amigo Mexican Restaurant", "neighborhood": "", "address": "1776 S Cannon Blvd", "city": "Kannapolis", "state": "NC", "postal_code": "28083", "latitude": 35.4698099, "longitude": -80.611336, "stars": 4.0, "review_count": 28, "is_open": 1, "attributes": {"BusinessParking": {"garage": false, "street": false, "validated": false, "lot": true, "valet": false}, "GoodForMeal": {"dessert": false, "latenight": false, "lunch": true, "dinner": true, "breakfast": false, "brunch": false}, "Alcohol": "full_bar", "Caters": false, "HasTV": true, "RestaurantsGoodForGroups": true, "NoiseLevel": "quiet", "WiFi": "free", "RestaurantsAttire": "casual", "RestaurantsReservations": true, "OutdoorSeating": true, "BusinessAcceptsCreditCards": true, "RestaurantsPriceRange2": 2, "BikeParking": false, "RestaurantsDelivery": false, "Ambience": {"romantic": false, "intimate": false, "classy": false, "hipster": false, "divey": false, "touristy": false, "trendy": false, "upscale": false, "casual": true}, "RestaurantsTakeOut": true, "GoodForKids": true, "WheelchairAccessible": true, "RestaurantsTableService": true}, "categories": ["Mexican", "Restaurants"], "hours": {"Monday": "11:00-22:00", "Tuesday": "11:00-22:00", "Friday": "11:00-22:30", "Wednesday": "11:00-22:00", "Thursday": "11:00-22:00", "Saturday": "11:00-22:30"}}, {"business_id": "r7RQ5TXIkY3VYo5ko3mfcA", "name": "Domino's Pizza", "neighborhood": "", "address": "601 S Cannon Blvd", "city": "Kannapolis", "state": "NC", "postal_code": "28083", "latitude": 35.4867674, "longitude": -80.6107022, "stars": 2.0, "review_count": 4, "is_open": 1, "attributes": {"RestaurantsPriceRange2": 2, "Alcohol": "none"}, "categories": ["American (New)", "Pizza", "Fast Food", "Restaurants"], "hours": {"Monday": "10:30-0:00", "Tuesday": "10:30-0:00", "Friday": "10:30-1:00", "Wednesday": "10:30-0:00", "Thursday": "10:30-0:00", "Sunday": "10:30-0:00", "Saturday": "10:30-1:00"}}, {"business_id": "TeeJR0VPUMaowBFZq0nQzQ", "name": "North 29 Grill", "neighborhood": "", "address": "2800 N Cannon Blvd", "city": "Kannapolis", "state": "NC", "postal_code": "28083", "latitude": 35.5296194, "longitude": -80.6102089, "stars": 4.0, "review_count": 6, "is_open": 1, "attributes": {"GoodForMeal": {"dessert": false, "latenight": false, "lunch": false, "dinner": false, "breakfast": false, "brunch": false}, "GoodForKids": true, "RestaurantsAttire": "casual", "RestaurantsReservations": false, "BusinessAcceptsCreditCards": true, "RestaurantsPriceRange2": 1, "RestaurantsDelivery": false, "Ambience": {"romantic": false, "intimate": false, "classy": false, "hipster": false, "divey": false, "touristy": false, "trendy": false, "upscale": false, "casual": false}, "RestaurantsTakeOut": true, "RestaurantsGoodForGroups": true}, "categories": ["Delis", "Restaurants", "American (Traditional)"], "hours": {"Monday": "10:30-21:00", "Tuesday": "10:30-21:00", "Friday": "10:30-21:00", "Wednesday": "10:30-21:00", "Thursday": "10:30-21:00", "Saturday": "10:30-21:00"}}]