[{"business_id": "gQ93Na9yBJghX8HzH7smwQ", "name": "China One Buffet", "neighborhood": "", "address": "1990 Cooper Foster Park Rd", "city": "Lorain", "state": "OH", "postal_code": "44053", "latitude": 41.4182365408, "longitude": -82.1990116686, "stars": 3.0, "review_count": 4, "is_open": 1, "attributes": {"BusinessParking": {"garage": false, "street": false, "validated": false, "lot": false, "valet": false}, "HasTV": false, "RestaurantsGoodForGroups": true, "NoiseLevel": "average", "WiFi": "free", "RestaurantsAttire": "casual", "RestaurantsReservations": false, "OutdoorSeating": false, "BusinessAcceptsCreditCards": true, "RestaurantsPriceRange2": 1, "BikeParking": false, "RestaurantsDelivery": false, "Ambience": {"romantic": false, "intimate": false, "classy": false, "hipster": false, "divey": false, "touristy": false, "trendy": false, "upscale": false, "casual": false}, "RestaurantsTakeOut": true, "GoodForKids": true, "RestaurantsTableService": true}, "categories": ["Restaurants", "Buffets"], "hours": {"Monday": "11:00-21:30", "Tuesday": "11:00-21:30", "Friday": "11:00-22:30", "Wednesday": "11:00-21:30", "Thursday": "11:00-21:30", "Sunday": "11:00-21:30", "Saturday": "11:00-22:30"}}, {"business_id": "BeqWMUzFZCqz8na056XFTQ", "name": "Giovanni's Pizza", "neighborhood": "", "address": "2936 Grove Ave", "city": "Lorain", "state": "OH", "postal_code": "44055", "latitude": 41.444172, "longitude": -82.1200009, "stars": 4.0, "review_count": 19, "is_open": 1, "attributes": {"RestaurantsTableService": false, "GoodForMeal": {"dessert": false, "latenight": false, "lunch": false, "dinner": true, "breakfast": false, "brunch": false}, "Alcohol": "none", "Caters": false, "HasTV": false, "RestaurantsGoodForGroups": false, "NoiseLevel": "quiet", "WiFi": "no", "RestaurantsAttire": "casual", "RestaurantsReservations": false, "OutdoorSeating": false, "BusinessAcceptsCreditCards": false, "RestaurantsPriceRange2": 2, "BikeParking": true, "RestaurantsDelivery": false, "Ambience": {"romantic": false, "intimate": false, "classy": false, "hipster": false, "divey": false, "touristy": false, "trendy": false, "upscale": false, "casual": false}, "RestaurantsTakeOut": true, "GoodForKids": true, "BusinessParking": {"garage": false, "street": true, "validated": false, "lot": false, "valet": false}}, "categories": ["Restaurants", "Pizza"], "hours": {"Monday": "10:00-22:00", "Tuesday": "10:00-22:00", "Friday": "10:00-0:00", "Wednesday": "10:00-22:00", "Thursday": "10:00-22:00", "Sunday": "10:00-22:00", "Saturday": "10:00-0:00"}}, {"business_id": "C2hutpJKiLqHDrk729hVBw", "name": "Walmart Supercenter", "neighborhood": "", "address": "4380 Leavitt Rd", "city": "Lorain", "state": "OH", "postal_code": "44053", "latitude": 41.4297984903, "longitude": -82.2080827095, "stars": 3.0, "review_count": 10, "is_open": 1, "attributes": {"BusinessAcceptsCreditCards": true, "RestaurantsPriceRange2": 2, "BusinessParking": {"garage": false, "street": false, "validated": false, "lot": true, "valet": false}, "BikeParking": true, "RestaurantsTakeOut": true}, "categories": ["Shopping", "Food", "Fashion", "Discount Store", "Grocery", "Drugstores", "Department Stores"], "hours": {}}, {"business_id": "PRrHl-8NqWmK3-YD-4lHMg", "name": "Kmart", "neighborhood": "", "address": "5350 Leavitt Rd", "city": "Lorain", "state": "OH", "postal_code": "44053", "latitude": 41.4194911, "longitude": -82.2118242, "stars": 3.0, "review_count": 6, "is_open": 0, "attributes": {"BusinessAcceptsCreditCards": true, "RestaurantsPriceRange2": 1, "BusinessParking": {"garage": false, "street": false, "validated": false, "lot": true, "valet": false}, "BikeParking": false}, "categories": ["Food", "Grocery", "Department Stores", "Fashion", "Shopping"], "hours": {"Monday": "7:00-23:00", "Tuesday": "7:00-23:00", "Friday": "7:00-23:00", "Wednesday": "7:00-23:00", "Thursday": "7:00-23:00", "Sunday": "7:00-23:00", "Saturday": "7:00-23:00"}}, {"business_id": "HyS0GqyhCddeeTOSWEJArA", "name": "Licha's", "neighborhood": "", "address": "3045 Clinton Ave", "city": "Lorain", "state": "OH", "postal_code": "44055", "latitude": 41.4428921, "longitude": -82.1275592, "stars": 4.0, "review_count": 3, "is_open": 1, "attributes": {"BusinessAcceptsCreditCards": true, "RestaurantsPriceRange2": 2, "BusinessParking": {"garage": false, "street": false, "validated": false, "lot": true, "valet": false}, "BikeParking": true, "WheelchairAccessible": true}, "categories": ["Grocery", "Food", "Ethnic Grocery", "International Grocery"], "hours": {"Monday": "10:00-20:00", "Tuesday": "10:00-20:00", "Friday": "10:00-20:00", "Wednesday": "10:00-20:00", "Thursday": "10:00-20:00", "Sunday": "9:00-20:00", "Saturday": "10:00-20:00"}}, {"business_id": "nW3Y05gCIhYAQFq6FUWihA", "name": "K Cream Korner", "neighborhood": "", "address": "1207 W Erie Ave", "city": "Lorain", "state": "OH", "postal_code": "44052", "latitude": 41.466835, "longitude": -82.1849262, "stars": 4.0, "review_count": 15, "is_open": 1, "attributes": {"BusinessParking": {"garage": false, "street": false, "validated": false, "lot": true, "valet": false}, "WiFi": "no", "BusinessAcceptsCreditCards": false, "RestaurantsPriceRange2": 1, "BikeParking": true, "RestaurantsTakeOut": true, "WheelchairAccessible": true}, "categories": ["Food", "Ice Cream & Frozen Yogurt"], "hours": {}}, {"business_id": "WrGQ2PAbraVvJEZurDrspw", "name": "MUTT & JEFF'S", "neighborhood": "", "address": "3700 Oberlin Ave", "city": "Lorain", "state": "OH", "postal_code": "44053", "latitude": 41.4365706, "longitude": -82.1858066, "stars": 3.5, "review_count": 7, "is_open": 1, "attributes": {"Alcohol": "full_bar", "HasTV": true, "RestaurantsGoodForGroups": true, "WiFi": "free", "RestaurantsAttire": "casual", "RestaurantsReservations": false, "OutdoorSeating": true, "BusinessAcceptsCreditCards": true, "RestaurantsPriceRange2": 2, "BikeParking": true, "RestaurantsDelivery": false, "Ambience": {"romantic": false, "intimate": false, "classy": false, "hipster": false, "divey": false, "touristy": false, "trendy": false, "upscale": false, "casual": false}, "RestaurantsTakeOut": true, "GoodForKids": false, "HappyHour": true, "GoodForDancing": true, "BusinessParking": {"garage": false, "street": false, "validated": false, "lot": false, "valet": false}}, "categories": ["Diners", "Nightlife", "Karaoke", "Restaurants"], "hours": {}}, {"business_id": "Ew9YPQV9g4a-L8NjigV0NQ", "name": "Lenoci's Spaghetti House", "neighborhood": "", "address": "5520 Oberlin Ave", "city": "Lorain", "state": "OH", "postal_code": "44053", "latitude": 41.4193057, "longitude": -82.1857946, "stars": 4.5, "review_count": 13, "is_open": 1, "attributes": {"RestaurantsTableService": true, "GoodForMeal": {"dessert": false, "latenight": false, "lunch": false, "dinner": false, "breakfast": false, "brunch": false}, "Alcohol": "beer_and_wine", "Caters": true, "HasTV": false, "RestaurantsGoodForGroups": true, "NoiseLevel": "average", "WiFi": "no", "RestaurantsAttire": "casual", "RestaurantsReservations": true, "OutdoorSeating": false, "BusinessAcceptsCreditCards": true, "RestaurantsPriceRange2": 2, "BikeParking": true, "RestaurantsDelivery": false, "Ambience": {"romantic": false, "intimate": false, "classy": false, "hipster": false, "divey": false, "touristy": false, "trendy": false, "upscale": false, "casual": false}, "RestaurantsTakeOut": true, "GoodForKids": true, "WheelchairAccessible": true, "BusinessParking": {"garage": false, "street": false, "validated": false, "lot": false, "valet": false}}, "categories": ["Pizza", "American (New)", "Restaurants", "Italian"], "hours": {"Monday": "11:00-21:00", "Tuesday": "11:00-21:00", "Friday": "11:00-21:00", "Wednesday": "11:00-21:00", "Thursday": "11:00-21:00", "Saturday": "11:00-21:00"}}, {"business_id": "wwD-ygsHGhVSfMtWRsmv5g", "name": "Rainbow Bakery", "neighborhood": "", "address": "2901 Pearl Ave", "city": "Lorain", "state": "OH", "postal_code": "44055", "latitude": 41.4442295, "longitude": -82.1364827, "stars": 4.5, "review_count": 10, "is_open": 1, "attributes": {"DogsAllowed": false, "BusinessParking": {"garage": false, "street": false, "validated": false, "lot": true, "valet": false}, "HasTV": false, "WiFi": "no", "RestaurantsReservations": false, "OutdoorSeating": true, "BusinessAcceptsCreditCards": true, "RestaurantsPriceRange2": 1, "BusinessAcceptsBitcoin": false, "BikeParking": false, "RestaurantsDelivery": false, "WheelchairAccessible": true}, "categories": ["Food", "Puerto Rican", "Grocery", "Caribbean", "Restaurants", "Bakeries"], "hours": {"Monday": "6:30-22:00", "Tuesday": "6:30-22:00", "Friday": "6:30-22:00", "Wednesday": "6:30-22:00", "Thursday": "6:30-22:00", "Sunday": "6:30-20:00", "Saturday": "6:30-22:00"}}, {"business_id": "aaeqhe4xDfHl65fM5kBEsQ", "name": "Sunset Terrace at Lakeview", "neighborhood": "", "address": "1800 W Erie Ave", "city": "Lorain", "state": "OH", "postal_code": "44052", "latitude": 41.4624217, "longitude": -82.1945864, "stars": 3.0, "review_count": 11, "is_open": 1, "attributes": {"RestaurantsTableService": true, "GoodForMeal": {"dessert": false, "latenight": false, "lunch": true, "dinner": false, "breakfast": false, "brunch": false}, "DogsAllowed": false, "Alcohol": "full_bar", "Caters": true, "HasTV": false, "RestaurantsGoodForGroups": true, "NoiseLevel": "quiet", "WiFi": "no", "RestaurantsAttire": "casual", "RestaurantsReservations": true, "OutdoorSeating": true, "BusinessAcceptsCreditCards": true, "RestaurantsPriceRange2": 1, "BusinessAcceptsBitcoin": false, "BikeParking": true, "RestaurantsDelivery": false, "RestaurantsTakeOut": false, "GoodForKids": true, "WheelchairAccessible": true, "BusinessParking": {"garage": false, "street": false, "validated": false, "lot": true, "valet": false}}, "categories": ["Venues & Event Spaces", "Event Planning & Services", "Restaurants", "Active Life", "American (Traditional)", "Parks"], "hours": {"Monday": "11:00-18:00", "Tuesday": "11:00-18:00", "Friday": "11:00-18:00", "Wednesday": "11:00-18:00", "Thursday": "11:00-18:00", "Sunday": "10:00-15:00", "Saturday": "11:00-14:00"}}, {"business_id": "2Ql9YdeQstF79FLZyypDWQ", "name": "Hunan King Restaurant", "neighborhood": "", "address": "3317 Oberlin Ave", "city": "Lorain", "state": "OH", "postal_code": "44053", "latitude": 41.4404511, "longitude": -82.1852672, "stars": 4.0, "review_count": 4, "is_open": 1, "attributes": {}, "categories": ["Restaurants"], "hours": {}}, {"business_id": "v630GIZJUVlggrMSDLGclQ", "name": "No.1 Asian Buffet", "neighborhood": "", "address": "1990 Cooper Foster Park Rd", "city": "Lorain", "state": "OH", "postal_code": "44053", "latitude": 41.418297, "longitude": -82.2030839, "stars": 1.5, "review_count": 3, "is_open": 1, "attributes": {"Ambience": {"romantic": false, "intimate": false, "classy": false, "hipster": false, "divey": false, "touristy": false, "trendy": false, "upscale": false, "casual": false}, "NoiseLevel": "average"}, "categories": ["Chinese", "Restaurants", "Asian Fusion"], "hours": {}}, {"business_id": "fUalY46xohLeAQDVkxfabQ", "name": "Mi Casa Sabor Latino", "neighborhood": "", "address": "2229 W 21st St", "city": "Lorain", "state": "OH", "postal_code": "44052", "latitude": 41.4508226851, "longitude": -82.2008841857, "stars": 4.5, "review_count": 7, "is_open": 1, "attributes": {"RestaurantsTableService": false, "GoodForMeal": {"dessert": false, "latenight": false, "lunch": false, "dinner": false, "breakfast": false, "brunch": false}, "Alcohol": "none", "HasTV": true, "RestaurantsGoodForGroups": true, "NoiseLevel": "quiet", "WiFi": "no", "RestaurantsAttire": "casual", "RestaurantsReservations": false, "OutdoorSeating": false, "BusinessAcceptsCreditCards": true, "RestaurantsPriceRange2": 1, "BikeParking": false, "RestaurantsDelivery": false, "Ambience": {"romantic": false, "intimate": false, "classy": false, "hipster": false, "divey": false, "touristy": false, "trendy": false, "upscale": false, "casual": true}, "RestaurantsTakeOut": true, "GoodForKids": true, "BusinessParking": {"garage": false, "street": false, "validated": false, "lot": false, "valet": false}}, "categories": ["Restaurants", "Spanish"], "hours": {"Monday": "11:00-19:00", "Tuesday": "11:00-19:00", "Friday": "11:00-19:00", "Wednesday": "11:00-19:00", "Thursday": "11:00-19:00", "Saturday": "11:00-19:00"}}, {"business_id": "MmAUQLgMUJbqsZ9oNLxQHw", "name": "El Kefon Puertoriqueno", "neighborhood": "", "address": "1836 Broadway", "city": "Lorain", "state": "OH", "postal_code": "44052", "latitude": 41.4536967, "longitude": -82.1664849, "stars": 3.0, "review_count": 14, "is_open": 1, "attributes": {"RestaurantsTableService": false, "GoodForMeal": {"dessert": false, "latenight": false, "lunch": true, "dinner": false, "breakfast": false, "brunch": false}, "Alcohol": "none", "Caters": true, "HasTV": true, "RestaurantsGoodForGroups": true, "NoiseLevel": "loud", "WiFi": "no", "RestaurantsAttire": "casual", "RestaurantsReservations": false, "OutdoorSeating": false, "BusinessAcceptsCreditCards": false, "RestaurantsPriceRange2": 1, "BikeParking": false, "RestaurantsDelivery": false, "Ambience": {"romantic": false, "intimate": false, "classy": false, "hipster": false, "divey": false, "touristy": false, "trendy": false, "upscale": false, "casual": false}, "RestaurantsTakeOut": true, "GoodForKids": true, "BusinessParking": {"garage": false, "street": true, "validated": false, "lot": false, "valet": false}}, "categories": ["Restaurants", "Latin American"], "hours": {}}, {"business_id": "RbFy8qBvs_8VJkDqMehZFg", "name": "Subway", "neighborhood": "", "address": "3360 Oberlin Ave", "city": "Lorain", "state": "OH", "postal_code": "44053", "latitude": 41.439993, "longitude": -82.18577, "stars": 3.0, "review_count": 3, "is_open": 1, "attributes": {"BusinessAcceptsCreditCards": true, "RestaurantsGoodForGroups": false, "RestaurantsTakeOut": true, "RestaurantsReservations": false, "RestaurantsDelivery": false}, "categories": ["Restaurants", "Fast Food", "Sandwiches"], "hours": {}}, {"business_id": "MdnYGOVa3goIGfKjrOCXqQ", "name": "New York Grill & Restaurant", "neighborhood": "", "address": "800 E Erie Ave", "city": "Lorain", "state": "OH", "postal_code": "44052", "latitude": 41.4728943, "longitude": -82.166532, "stars": 3.5, "review_count": 7, "is_open": 1, "attributes": {"RestaurantsTableService": true, "GoodForMeal": {"dessert": false, "latenight": false, "lunch": true, "dinner": false, "breakfast": false, "brunch": false}, "Alcohol": "none", "Caters": false, "HasTV": true, "RestaurantsGoodForGroups": true, "NoiseLevel": "quiet", "WiFi": "no", "RestaurantsAttire": "casual", "RestaurantsReservations": false, "OutdoorSeating": false, "BusinessAcceptsCreditCards": true, "RestaurantsPriceRange2": 1, "BikeParking": true, "RestaurantsDelivery": false, "Ambience": {"romantic": false, "intimate": false, "classy": false, "hipster": false, "divey": false, "touristy": false, "trendy": false, "upscale": false, "casual": false}, "RestaurantsTakeOut": true, "GoodForKids": true, "WheelchairAccessible": true, "BusinessParking": {"garage": false, "street": true, "validated": false, "lot": false, "valet": false}}, "categories": ["Breakfast & Brunch", "American (Traditional)", "Restaurants"], "hours": {"Tuesday": "7:00-14:00", "Friday": "7:00-14:00", "Wednesday": "7:00-14:00", "Thursday": "7:00-14:00", "Sunday": "7:00-14:00", "Saturday": "7:00-14:00"}}, {"business_id": "b4wCXbrR5ygAN10_XOaSdA", "name": "Mama J's Homestyle Restaurant", "neighborhood": "", "address": "2001 Broadway", "city": "Lorain", "state": "OH", "postal_code": "44052", "latitude": 41.452338, "longitude": -82.165787, "stars": 4.0, "review_count": 5, "is_open": 0, "attributes": {"RestaurantsTableService": true, "Alcohol": "none", "Caters": false, "HasTV": false, "RestaurantsGoodForGroups": true, "NoiseLevel": "average", "WiFi": "no", "RestaurantsAttire": "casual", "RestaurantsReservations": true, "OutdoorSeating": false, "BusinessAcceptsCreditCards": true, "RestaurantsPriceRange2": 2, "BikeParking": false, "RestaurantsDelivery": true, "Ambience": {"romantic": false, "intimate": false, "classy": false, "hipster": false, "divey": false, "touristy": false, "trendy": false, "upscale": false, "casual": false}, "RestaurantsTakeOut": true, "GoodForKids": true, "BusinessParking": {"garage": false, "street": false, "validated": false, "lot": false, "valet": false}}, "categories": ["American (Traditional)", "Restaurants", "Soul Food"], "hours": {}}, {"business_id": "gVrOjfdnijDwxivLTHiBAg", "name": "Applebee's", "neighborhood": "", "address": "4320 Leavitt Rd", "city": "Lorain", "state": "OH", "postal_code": "44053", "latitude": 41.4285783, "longitude": -82.20453, "stars": 2.5, "review_count": 10, "is_open": 1, "attributes": {"Alcohol": "full_bar", "HasTV": true, "NoiseLevel": "average", "RestaurantsAttire": "casual", "BusinessAcceptsCreditCards": true, "Ambience": {"romantic": false, "intimate": false, "classy": false, "hipster": false, "divey": false, "touristy": false, "trendy": false, "upscale": false, "casual": true}, "RestaurantsGoodForGroups": true, "Caters": false, "WiFi": "free", "RestaurantsReservations": true, "RestaurantsTableService": true, "RestaurantsTakeOut": true, "GoodForKids": true, "HappyHour": true, "GoodForDancing": false, "BikeParking": false, "OutdoorSeating": false, "RestaurantsPriceRange2": 2, "RestaurantsDelivery": false, "GoodForMeal": {"dessert": true, "latenight": false, "lunch": false, "dinner": false, "breakfast": false, "brunch": true}, "BusinessParking": {"garage": false, "street": false, "validated": false, "lot": false, "valet": false}, "DriveThru": false}, "categories": ["Bars", "American (Traditional)", "Restaurants", "Nightlife", "Sports Bars", "Burgers"], "hours": {"Monday": "11:00-0:00", "Tuesday": "11:00-0:00", "Friday": "11:00-1:00", "Wednesday": "11:00-0:00", "Thursday": "11:00-0:00", "Sunday": "11:00-0:00", "Saturday": "11:00-1:00"}}, {"business_id": "X2WqtVnDBmAHfvCSB2e_6A", "name": "El Castillo Grande", "neighborhood": "", "address": "2532 W Erie Ave", "city": "Lorain", "state": "OH", "postal_code": "44053", "latitude": 41.4578579, "longitude": -82.2042521, "stars": 3.5, "review_count": 3, "is_open": 0, "attributes": {"GoodForMeal": {"dessert": false, "latenight": false, "lunch": false, "dinner": false, "breakfast": false, "brunch": false}, "Alcohol": "full_bar", "NoiseLevel": "quiet", "WiFi": "no", "RestaurantsAttire": "casual", "OutdoorSeating": true, "BusinessAcceptsCreditCards": true, "RestaurantsPriceRange2": 2, "RestaurantsTableService": true, "RestaurantsDelivery": false, "Ambience": {"romantic": false, "intimate": false, "classy": false, "hipster": false, "divey": false, "touristy": false, "trendy": false, "upscale": false, "casual": false}, "RestaurantsTakeOut": true, "RestaurantsGoodForGroups": true, "BusinessParking": {"garage": false, "street": false, "validated": false, "lot": false, "valet": false}}, "categories": ["Restaurants", "Mexican"], "hours": {}}, {"business_id": "dOEMnyvSk8njKJfqsDaqMA", "name": "Diso's Bistro", "neighborhood": "", "address": "4286 Oberlin Ave", "city": "Lorain", "state": "OH", "postal_code": "44053", "latitude": 41.4322995, "longitude": -82.1859168, "stars": 4.5, "review_count": 42, "is_open": 1, "attributes": {"RestaurantsTableService": true, "GoodForMeal": {"dessert": false, "latenight": false, "lunch": false, "dinner": false, "breakfast": false, "brunch": false}, "Alcohol": "full_bar", "Caters": true, "HasTV": true, "RestaurantsGoodForGroups": true, "NoiseLevel": "average", "WiFi": "no", "RestaurantsAttire": "casual", "RestaurantsReservations": true, "OutdoorSeating": false, "BusinessAcceptsCreditCards": true, "RestaurantsPriceRange2": 2, "BikeParking": true, "RestaurantsDelivery": false, "Ambience": {"romantic": false, "intimate": false, "classy": true, "hipster": false, "divey": false, "touristy": false, "trendy": false, "upscale": false, "casual": false}, "RestaurantsTakeOut": true, "GoodForKids": false, "BusinessParking": {"garage": false, "street": false, "validated": false, "lot": false, "valet": false}}, "categories": ["American (New)", "Restaurants"], "hours": {"Monday": "16:00-22:00", "Tuesday": "16:00-22:00", "Friday": "16:00-23:00", "Wednesday": "16:00-22:00", "Thursday": "16:00-22:00", "Saturday": "16:00-23:00"}}, {"business_id": "ar_Lr9posiyTQTkXwkIbHA", "name": "Chris' Restaurant", "neighborhood": "", "address": "2812 W Erie Ave", "city": "Lorain", "state": "OH", "postal_code": "44053", "latitude": 41.457128, "longitude": -82.206301, "stars": 3.5, "review_count": 12, "is_open": 1, "attributes": {"RestaurantsTableService": true, "GoodForMeal": {"dessert": false, "latenight": false, "lunch": true, "dinner": true, "breakfast": true, "brunch": true}, "Alcohol": "none", "Caters": false, "HasTV": false, "RestaurantsGoodForGroups": true, "NoiseLevel": "average", "WiFi": "no", "RestaurantsAttire": "casual", "RestaurantsReservations": false, "OutdoorSeating": false, "BusinessAcceptsCreditCards": true, "RestaurantsPriceRange2": 1, "BikeParking": true, "RestaurantsDelivery": false, "Ambience": {"romantic": false, "intimate": false, "classy": false, "hipster": false, "divey": false, "touristy": false, "trendy": false, "upscale": false, "casual": false}, "RestaurantsTakeOut": true, "GoodForKids": true, "BusinessParking": {"garage": false, "street": false, "validated": false, "lot": true, "valet": false}}, "categories": ["Restaurants", "Diners"], "hours": {"Tuesday": "8:00-20:00", "Friday": "8:00-20:00", "Wednesday": "8:00-20:00", "Thursday": "8:00-20:00", "Sunday": "8:00-20:00", "Saturday": "8:00-20:00"}}, {"business_id": "cULLRBa4s9Y31ba16gUsiw", "name": "Marc's", "neighborhood": "", "address": "170 Sheffield Ctr", "city": "Lorain", "state": "OH", "postal_code": "44055", "latitude": 41.4187184, "longitude": -82.149691, "stars": 3.5, "review_count": 3, "is_open": 1, "attributes": {"BusinessAcceptsCreditCards": true, "RestaurantsPriceRange2": 2, "BusinessParking": {"garage": false, "street": false, "validated": false, "lot": false, "valet": false}}, "categories": ["Food", "Specialty Food", "Drugstores", "Grocery", "Shopping", "Discount Store", "Fruits & Veggies"], "hours": {"Monday": "7:00-21:00", "Tuesday": "7:00-21:00", "Friday": "7:00-21:00", "Wednesday": "7:00-21:00", "Thursday": "7:00-21:00", "Sunday": "7:00-19:00", "Saturday": "7:00-21:00"}}, {"business_id": "qzEjU89usN1O1gqEP25Ztg", "name": "Little Devil Cupcakery", "neighborhood": "", "address": "3819 Oberlin Ave", "city": "Lorain", "state": "OH", "postal_code": "44053", "latitude": 41.435903, "longitude": -82.1854107, "stars": 5.0, "review_count": 5, "is_open": 1, "attributes": {"DogsAllowed": false, "BusinessParking": {"garage": false, "street": false, "validated": false, "lot": true, "valet": false}, "BusinessAcceptsCreditCards": true, "RestaurantsPriceRange2": 1, "BusinessAcceptsBitcoin": false, "BikeParking": true, "RestaurantsDelivery": false, "RestaurantsTakeOut": true, "WheelchairAccessible": true}, "categories": ["Bakeries", "Event Planning & Services", "Food", "Caterers", "Desserts", "Cupcakes"], "hours": {"Tuesday": "10:00-18:00", "Friday": "10:00-18:00", "Wednesday": "10:00-18:00", "Thursday": "10:00-18:00", "Saturday": "10:00-17:00"}}, {"business_id": "7DHR5jNMtoWTvf1Zuos5Ng", "name": "Pizza Hut", "neighborhood": "", "address": "2300 Cooper-Foster Rd", "city": "Lorain", "state": "OH", "postal_code": "44053", "latitude": 41.418624, "longitude": -82.2077907, "stars": 3.0, "review_count": 5, "is_open": 1, "attributes": {"GoodForMeal": {"dessert": false, "latenight": false, "lunch": false, "dinner": false, "breakfast": false, "brunch": false}, "Alcohol": "beer_and_wine", "Caters": false, "HasTV": false, "RestaurantsGoodForGroups": true, "NoiseLevel": "average", "WiFi": "no", "RestaurantsAttire": "casual", "RestaurantsReservations": true, "OutdoorSeating": false, "BusinessAcceptsCreditCards": true, "RestaurantsPriceRange2": 2, "RestaurantsTableService": true, "RestaurantsDelivery": true, "Ambience": {"romantic": false, "intimate": false, "classy": false, "hipster": false, "divey": false, "touristy": false, "trendy": false, "upscale": false, "casual": false}, "RestaurantsTakeOut": true, "GoodForKids": true, "WheelchairAccessible": false, "BusinessParking": {"garage": false, "street": false, "validated": false, "lot": false, "valet": false}}, "categories": ["Italian", "Restaurants", "Chicken Wings", "Pizza"], "hours": {}}, {"business_id": "muDjbvbwNSg2B17JA2VF9w", "name": "Rosie's Pizza Palace", "neighborhood": "", "address": "3113 Broadway", "city": "Lorain", "state": "OH", "postal_code": "44055", "latitude": 41.4421874, "longitude": -82.1642637, "stars": 3.5, "review_count": 13, "is_open": 1, "attributes": {"Alcohol": "none", "HasTV": false, "NoiseLevel": "quiet", "RestaurantsAttire": "casual", "BusinessAcceptsCreditCards": false, "Ambience": {"romantic": false, "intimate": false, "classy": false, "hipster": false, "divey": false, "touristy": false, "trendy": false, "upscale": false, "casual": false}, "RestaurantsGoodForGroups": true, "Caters": false, "WiFi": "no", "RestaurantsReservations": false, "BusinessAcceptsBitcoin": false, "RestaurantsTableService": false, "RestaurantsTakeOut": true, "GoodForKids": true, "WheelchairAccessible": false, "DogsAllowed": false, "BikeParking": true, "OutdoorSeating": false, "RestaurantsPriceRange2": 2, "RestaurantsDelivery": false, "GoodForMeal": {"dessert": false, "latenight": false, "lunch": false, "dinner": false, "breakfast": false, "brunch": false}, "BusinessParking": {"garage": false, "street": true, "validated": false, "lot": true, "valet": false}}, "categories": ["Restaurants", "Pizza"], "hours": {"Tuesday": "16:00-21:30", "Friday": "16:00-21:30", "Wednesday": "16:00-21:30", "Thursday": "16:00-21:30", "Sunday": "15:00-21:00", "Saturday": "16:00-21:30"}}, {"business_id": "kIi0rz1BbH-wP8o5dz-UEQ", "name": "Scorchers Casual Eatery & Draft House", "neighborhood": "", "address": "900 Broadway Ave", "city": "Lorain", "state": "OH", "postal_code": "44052", "latitude": 41.4629110197, "longitude": -82.1725930068, "stars": 3.5, "review_count": 13, "is_open": 1, "attributes": {"Alcohol": "full_bar", "HasTV": true, "NoiseLevel": "average", "RestaurantsAttire": "casual", "BusinessAcceptsCreditCards": true, "Music": {"dj": false, "background_music": false, "no_music": false, "karaoke": false, "live": false, "video": false, "jukebox": true}, "Ambience": {"romantic": false, "intimate": false, "classy": false, "hipster": false, "divey": false, "touristy": false, "trendy": false, "upscale": false, "casual": false}, "RestaurantsGoodForGroups": true, "BYOBCorkage": "no", "RestaurantsReservations": false, "RestaurantsTableService": false, "RestaurantsTakeOut": true, "GoodForKids": false, "HappyHour": true, "GoodForDancing": false, "BikeParking": true, "OutdoorSeating": false, "RestaurantsPriceRange2": 1, "RestaurantsDelivery": false, "GoodForMeal": {"dessert": false, "latenight": false, "lunch": false, "dinner": false, "breakfast": false, "brunch": false}, "BusinessParking": {"garage": false, "street": true, "validated": false, "lot": false, "valet": false}, "CoatCheck": false, "Smoking": "no", "WheelchairAccessible": true}, "categories": ["American (Traditional)", "Sports Bars", "Restaurants", "Bars", "Nightlife"], "hours": {}}, {"business_id": "hCxM2MH3cDaqozUDpydXZg", "name": "McDonald's", "neighborhood": "", "address": "6400 Middle Ridge Rd", "city": "Lorain", "state": "OH", "postal_code": "44052", "latitude": 41.413316, "longitude": -82.165496, "stars": 2.0, "review_count": 4, "is_open": 1, "attributes": {"RestaurantsTableService": false, "GoodForMeal": {"dessert": false, "latenight": false, "lunch": false, "dinner": false, "breakfast": false, "brunch": false}, "Alcohol": "none", "Caters": false, "HasTV": true, "RestaurantsGoodForGroups": true, "NoiseLevel": "average", "WiFi": "free", "RestaurantsAttire": "casual", "RestaurantsReservations": false, "OutdoorSeating": false, "BusinessAcceptsCreditCards": true, "RestaurantsPriceRange2": 1, "BikeParking": true, "RestaurantsDelivery": false, "RestaurantsTakeOut": true, "GoodForKids": true, "DriveThru": true, "BusinessParking": {"garage": false, "street": false, "validated": false, "lot": false, "valet": false}}, "categories": ["Burgers", "Restaurants", "Fast Food"], "hours": {}}, {"business_id": "RPJNG4Se02TA64WC9dZr1A", "name": "Starbucks", "neighborhood": "", "address": "8000 Oak Point Rd", "city": "Lorain", "state": "OH", "postal_code": "44053", "latitude": 41.4131789, "longitude": -82.2424136, "stars": 4.0, "review_count": 3, "is_open": 1, "attributes": {"BusinessParking": {"garage": false, "street": false, "validated": false, "lot": false, "valet": false}, "WiFi": "free", "OutdoorSeating": false, "BusinessAcceptsCreditCards": true, "RestaurantsPriceRange2": 1, "RestaurantsTakeOut": true}, "categories": ["Food", "Coffee & Tea"], "hours": {"Monday": "8:00-21:00", "Tuesday": "8:00-21:00", "Friday": "8:00-21:00", "Wednesday": "8:00-21:00", "Thursday": "8:00-21:00", "Sunday": "8:00-20:00", "Saturday": "8:00-21:00"}}, {"business_id": "243PQVgkx8eUzVaKCgC-gw", "name": "Chapman's Food Mart", "neighborhood": "", "address": "2875 G St", "city": "Lorain", "state": "OH", "postal_code": "44052", "latitude": 41.4761752, "longitude": -82.1400376, "stars": 4.0, "review_count": 5, "is_open": 1, "attributes": {"RestaurantsTableService": false, "GoodForMeal": {"dessert": false, "latenight": false, "lunch": false, "dinner": false, "breakfast": false, "brunch": false}, "Alcohol": "beer_and_wine", "Caters": false, "HasTV": false, "RestaurantsGoodForGroups": false, "NoiseLevel": "average", "WiFi": "no", "RestaurantsAttire": "casual", "RestaurantsReservations": false, "OutdoorSeating": false, "BusinessAcceptsCreditCards": true, "RestaurantsPriceRange2": 1, "BikeParking": true, "RestaurantsDelivery": false, "Ambience": {"romantic": false, "intimate": false, "classy": false, "hipster": false, "divey": false, "touristy": false, "trendy": false, "upscale": false, "casual": false}, "RestaurantsTakeOut": true, "GoodForKids": false, "BusinessParking": {"garage": false, "street": false, "validated": false, "lot": true, "valet": false}}, "categories": ["Sandwiches", "Grocery", "Food", "Pizza", "Restaurants", "Convenience Stores"], "hours": {"Monday": "7:30-22:00", "Tuesday": "7:30-22:00", "Friday": "7:30-23:00", "Wednesday": "7:30-22:00", "Thursday": "7:30-22:00", "Sunday": "7:30-22:00", "Saturday": "7:30-23:00"}}, {"business_id": "3ZQxw4vY0HBuS7KeiWmyew", "name": "Selenti's Pizza", "neighborhood": "", "address": "808 Oberlin Ave", "city": "Lorain", "state": "OH", "postal_code": "44052", "latitude": 41.4615043, "longitude": -82.1852053, "stars": 3.5, "review_count": 9, "is_open": 1, "attributes": {"RestaurantsTableService": false, "GoodForMeal": {"dessert": false, "latenight": false, "lunch": false, "dinner": false, "breakfast": false, "brunch": false}, "Alcohol": "none", "Caters": true, "HasTV": false, "RestaurantsGoodForGroups": false, "NoiseLevel": "quiet", "RestaurantsAttire": "casual", "RestaurantsReservations": false, "OutdoorSeating": false, "BusinessAcceptsCreditCards": true, "RestaurantsPriceRange2": 1, "BikeParking": true, "RestaurantsDelivery": false, "Ambience": {"romantic": false, "intimate": false, "classy": false, "hipster": false, "divey": false, "touristy": false, "trendy": false, "upscale": false, "casual": false}, "RestaurantsTakeOut": true, "GoodForKids": true, "BusinessParking": {"garage": false, "street": true, "validated": false, "lot": false, "valet": false}}, "categories": ["Restaurants", "Pizza"], "hours": {}}, {"business_id": "bNZkOYnJ5zvx6RdK05oSEw", "name": "Ardick Seafood", "neighborhood": "", "address": "922 Colorado Ave", "city": "Lorain", "state": "OH", "postal_code": "44052", "latitude": 41.466079, "longitude": -82.16175, "stars": 4.5, "review_count": 13, "is_open": 1, "attributes": {"RestaurantsTableService": false, "GoodForMeal": {"dessert": false, "latenight": false, "lunch": false, "dinner": false, "breakfast": false, "brunch": false}, "Alcohol": "none", "Caters": true, "HasTV": false, "RestaurantsGoodForGroups": true, "NoiseLevel": "average", "WiFi": "no", "RestaurantsAttire": "casual", "RestaurantsReservations": false, "OutdoorSeating": true, "BusinessAcceptsCreditCards": true, "RestaurantsPriceRange2": 2, "BikeParking": true, "RestaurantsDelivery": false, "Ambience": {"romantic": false, "intimate": false, "classy": false, "hipster": false, "divey": false, "touristy": false, "trendy": false, "upscale": false, "casual": false}, "RestaurantsTakeOut": true, "GoodForKids": true, "BusinessParking": {"garage": false, "street": false, "validated": false, "lot": false, "valet": false}}, "categories": ["Food", "Restaurants", "Seafood", "Specialty Food", "Seafood Markets"], "hours": {}}, {"business_id": "ntpj41N4iISg0oTMl1PUeQ", "name": "Long John Silver's", "neighborhood": "", "address": "1420 Cooper-Foster Park Rd", "city": "Lorain", "state": "OH", "postal_code": "44052", "latitude": 41.4186381, "longitude": -82.1917539, "stars": 2.0, "review_count": 3, "is_open": 1, "attributes": {"RestaurantsPriceRange2": 1, "RestaurantsDelivery": false}, "categories": ["Restaurants", "Fish & Chips", "Fast Food", "Seafood"], "hours": {"Monday": "10:30-22:00", "Tuesday": "10:30-22:00", "Friday": "10:30-23:00", "Wednesday": "10:30-22:00", "Thursday": "10:30-22:00", "Sunday": "10:30-22:00", "Saturday": "10:30-23:00"}}, {"business_id": "fu_holJh_R4kZklLnJZbtw", "name": "Quiznos", "neighborhood": "", "address": "1980 Cooper Foster Park Rd W", "city": "Lorain", "state": "OH", "postal_code": "44053", "latitude": 41.4190993, "longitude": -82.2024718, "stars": 5.0, "review_count": 4, "is_open": 1, "attributes": {"Caters": true, "GoodForKids": true, "BusinessAcceptsCreditCards": true, "RestaurantsDelivery": false, "RestaurantsTakeOut": true, "RestaurantsGoodForGroups": true}, "categories": ["Delis", "Fast Food", "Sandwiches", "Restaurants"], "hours": {}}, {"business_id": "hS7tKShmsWoP-B1f9F9jHQ", "name": "The Beachcliff Diner", "neighborhood": "", "address": "2405 W Erie Ave", "city": "Lorain", "state": "OH", "postal_code": "44053", "latitude": 41.458381, "longitude": -82.202661, "stars": 2.5, "review_count": 4, "is_open": 1, "attributes": {"RestaurantsTableService": true, "GoodForMeal": {"dessert": false, "latenight": false, "lunch": false, "dinner": false, "breakfast": false, "brunch": false}, "Alcohol": "none", "Caters": false, "HasTV": false, "RestaurantsGoodForGroups": true, "NoiseLevel": "loud", "WiFi": "no", "RestaurantsAttire": "casual", "RestaurantsReservations": false, "OutdoorSeating": false, "BusinessAcceptsCreditCards": true, "RestaurantsPriceRange2": 1, "BikeParking": true, "RestaurantsDelivery": false, "Ambience": {"romantic": false, "intimate": false, "classy": false, "hipster": false, "divey": false, "touristy": false, "trendy": false, "upscale": false, "casual": false}, "RestaurantsTakeOut": true, "GoodForKids": true, "BusinessParking": {"garage": false, "street": false, "validated": false, "lot": false, "valet": false}}, "categories": ["Restaurants", "Diners"], "hours": {}}, {"business_id": "zm8u9z2KCwEkNiCD59UQ3Q", "name": "Brown Bag Burgers & Beer", "neighborhood": "", "address": "4326 Leavitt Rd", "city": "Lorain", "state": "OH", "postal_code": "44053", "latitude": 41.4282153355, "longitude": -82.2045400912, "stars": 3.5, "review_count": 19, "is_open": 1, "attributes": {"Alcohol": "full_bar", "HasTV": true, "NoiseLevel": "loud", "RestaurantsAttire": "casual", "BusinessAcceptsCreditCards": true, "Ambience": {"romantic": false, "intimate": false, "classy": false, "hipster": false, "divey": false, "touristy": false, "trendy": false, "upscale": false, "casual": true}, "RestaurantsGoodForGroups": true, "Caters": false, "WiFi": "free", "RestaurantsReservations": false, "BusinessAcceptsBitcoin": false, "RestaurantsTableService": true, "RestaurantsTakeOut": true, "GoodForKids": true, "WheelchairAccessible": true, "BikeParking": true, "OutdoorSeating": true, "RestaurantsPriceRange2": 1, "RestaurantsDelivery": false, "GoodForMeal": {"dessert": false, "latenight": false, "lunch": false, "dinner": false, "breakfast": false, "brunch": false}, "BusinessParking": {"garage": false, "street": false, "validated": false, "lot": false, "valet": false}, "DriveThru": false}, "categories": ["Burgers", "Restaurants"], "hours": {"Monday": "11:00-22:00", "Tuesday": "11:00-22:00", "Friday": "11:00-0:00", "Wednesday": "11:00-22:00", "Thursday": "11:00-22:00", "Sunday": "11:00-22:00", "Saturday": "11:00-0:00"}}, {"business_id": "sR4z9gghML6gPGmJdLZU1A", "name": "Marco's Pizza", "neighborhood": "", "address": "1957 N Ridge Rd E", "city": "Lorain", "state": "OH", "postal_code": "44055", "latitude": 41.4182419, "longitude": -82.1274995, "stars": 3.5, "review_count": 3, "is_open": 1, "attributes": {"Alcohol": "none", "BusinessAcceptsCreditCards": true, "RestaurantsTakeOut": true, "OutdoorSeating": false}, "categories": ["Pizza", "Restaurants"], "hours": {}}, {"business_id": "1yiJeVUAatNuXMOXOcktgA", "name": "Dunkin' Donuts", "neighborhood": "", "address": "5494 Leavitt Rd", "city": "Lorain", "state": "OH", "postal_code": "44001", "latitude": 41.418647, "longitude": -82.209304, "stars": 3.0, "review_count": 5, "is_open": 1, "attributes": {"BusinessParking": {"garage": false, "street": false, "validated": false, "lot": true, "valet": false}, "OutdoorSeating": false, "BusinessAcceptsCreditCards": true, "RestaurantsPriceRange2": 1, "BikeParking": false, "RestaurantsTakeOut": false}, "categories": ["Coffee & Tea", "Food", "Donuts"], "hours": {}}, {"business_id": "1zB9uReur5fdEw5slte0gA", "name": "Pizza Hut", "neighborhood": "", "address": "3490 Colorado Ave", "city": "Lorain", "state": "OH", "postal_code": "44052", "latitude": 41.4646606, "longitude": -82.1327089, "stars": 3.5, "review_count": 3, "is_open": 1, "attributes": {"Caters": false, "RestaurantsReservations": false, "BusinessAcceptsCreditCards": true, "RestaurantsPriceRange2": 1, "RestaurantsDelivery": true, "RestaurantsTakeOut": true, "WheelchairAccessible": false}, "categories": ["Pizza", "Restaurants", "Italian", "Chicken Wings"], "hours": {}}, {"business_id": "2qdfdPecURCKeLQRHZMyQg", "name": "Starbucks", "neighborhood": "", "address": "4310 Leavitt Rd", "city": "Lorain", "state": "OH", "postal_code": "44053", "latitude": 41.4292114785, "longitude": -82.2037140531, "stars": 4.5, "review_count": 12, "is_open": 1, "attributes": {"BusinessParking": {"garage": false, "street": false, "validated": false, "lot": false, "valet": false}, "Caters": false, "WiFi": "free", "OutdoorSeating": true, "BusinessAcceptsCreditCards": true, "RestaurantsPriceRange2": 2, "BikeParking": true, "RestaurantsTakeOut": true}, "categories": ["Coffee & Tea", "Food"], "hours": {"Monday": "5:00-22:00", "Tuesday": "5:00-22:00", "Friday": "5:00-23:00", "Wednesday": "5:00-22:00", "Thursday": "5:00-22:00", "Sunday": "7:00-22:00", "Saturday": "6:00-23:00"}}, {"business_id": "rhitftTt-4-zoByj1bVYMQ", "name": "Yala's Pizza", "neighborhood": "", "address": "3352 Oberlin Ave", "city": "Lorain", "state": "OH", "postal_code": "44052", "latitude": 41.440093, "longitude": -82.1857689, "stars": 4.5, "review_count": 23, "is_open": 1, "attributes": {"Alcohol": "none", "HasTV": false, "NoiseLevel": "quiet", "RestaurantsAttire": "casual", "BusinessAcceptsCreditCards": true, "Ambience": {"romantic": false, "intimate": false, "classy": false, "hipster": false, "divey": true, "touristy": false, "trendy": false, "upscale": false, "casual": false}, "RestaurantsGoodForGroups": true, "Caters": false, "WiFi": "no", "RestaurantsReservations": false, "BusinessAcceptsBitcoin": false, "RestaurantsTableService": false, "RestaurantsTakeOut": true, "GoodForKids": true, "WheelchairAccessible": false, "DogsAllowed": false, "BikeParking": false, "OutdoorSeating": false, "RestaurantsPriceRange2": 1, "RestaurantsDelivery": false, "GoodForMeal": {"dessert": false, "latenight": false, "lunch": true, "dinner": false, "breakfast": false, "brunch": false}, "BusinessParking": {"garage": false, "street": false, "validated": false, "lot": true, "valet": false}}, "categories": ["Pizza", "Restaurants"], "hours": {"Monday": "15:00-23:00", "Tuesday": "11:00-23:00", "Friday": "11:00-0:00", "Wednesday": "11:00-23:00", "Thursday": "11:00-23:00", "Sunday": "12:00-22:00", "Saturday": "11:00-0:00"}}, {"business_id": "jcsZ0uzJINSaTq6oyUU0xQ", "name": "Gyros & More", "neighborhood": "", "address": "1515 Broadway", "city": "Lorain", "state": "OH", "postal_code": "44052", "latitude": 41.457794, "longitude": -82.167771, "stars": 4.5, "review_count": 19, "is_open": 1, "attributes": {"RestaurantsTableService": false, "GoodForMeal": {"dessert": false, "latenight": false, "lunch": true, "dinner": true, "breakfast": false, "brunch": false}, "Alcohol": "none", "Caters": false, "HasTV": false, "RestaurantsGoodForGroups": true, "NoiseLevel": "average", "WiFi": "no", "RestaurantsAttire": "casual", "RestaurantsReservations": false, "OutdoorSeating": false, "BusinessAcceptsCreditCards": true, "RestaurantsPriceRange2": 1, "WheelchairAccessible": false, "BikeParking": true, "RestaurantsDelivery": false, "Ambience": {"romantic": false, "intimate": false, "classy": false, "hipster": false, "divey": false, "touristy": false, "trendy": false, "upscale": false, "casual": true}, "RestaurantsTakeOut": true, "GoodForKids": true, "DriveThru": false, "BusinessParking": {"garage": false, "street": false, "validated": false, "lot": true, "valet": false}}, "categories": ["Restaurants", "Sandwiches", "Burgers", "Hot Dogs"], "hours": {"Monday": "10:30-21:00", "Tuesday": "10:30-21:00", "Friday": "10:30-21:00", "Wednesday": "10:30-21:00", "Thursday": "10:30-21:00", "Saturday": "10:30-21:00"}}, {"business_id": "9qqdaSdeMV8tY4LBMZXvhg", "name": "Castillo Mexicano", "neighborhood": "", "address": "2532 W Erie Ave", "city": "Lorain", "state": "OH", "postal_code": "44053", "latitude": 41.4578295, "longitude": -82.2042534, "stars": 3.0, "review_count": 44, "is_open": 0, "attributes": {"RestaurantsTableService": true, "GoodForMeal": {"dessert": false, "latenight": false, "lunch": false, "dinner": true, "breakfast": false, "brunch": false}, "Alcohol": "full_bar", "HasTV": true, "RestaurantsGoodForGroups": true, "NoiseLevel": "quiet", "WiFi": "no", "RestaurantsAttire": "casual", "RestaurantsReservations": false, "OutdoorSeating": true, "BusinessAcceptsCreditCards": true, "RestaurantsPriceRange2": 2, "BikeParking": true, "RestaurantsDelivery": false, "Ambience": {"romantic": false, "intimate": false, "classy": false, "hipster": false, "divey": false, "touristy": false, "trendy": false, "upscale": false, "casual": true}, "RestaurantsTakeOut": true, "GoodForKids": true, "BusinessParking": {"garage": false, "street": false, "validated": false, "lot": true, "valet": false}}, "categories": ["Restaurants", "Mexican"], "hours": {"Monday": "11:00-22:00", "Tuesday": "11:00-22:00", "Friday": "11:00-23:00", "Wednesday": "11:00-22:00", "Thursday": "11:00-22:00", "Sunday": "12:00-21:00", "Saturday": "12:00-23:00"}}, {"business_id": "XErOb3obTwM_Kby23AIYfg", "name": "Golden Crown Chinese-American Restaurant", "neighborhood": "", "address": "449 W 4th St", "city": "Lorain", "state": "OH", "postal_code": "44052", "latitude": 41.4670054, "longitude": -82.1784339, "stars": 3.5, "review_count": 6, "is_open": 1, "attributes": {"RestaurantsTableService": true, "GoodForMeal": {"dessert": false, "latenight": false, "lunch": false, "dinner": false, "breakfast": false, "brunch": false}, "Alcohol": "none", "HasTV": false, "RestaurantsGoodForGroups": true, "NoiseLevel": "quiet", "WiFi": "no", "RestaurantsAttire": "casual", "RestaurantsReservations": false, "OutdoorSeating": false, "BusinessAcceptsCreditCards": true, "RestaurantsPriceRange2": 1, "BikeParking": false, "RestaurantsDelivery": true, "Ambience": {"romantic": false, "intimate": false, "classy": false, "hipster": false, "divey": false, "touristy": false, "trendy": false, "upscale": false, "casual": false}, "RestaurantsTakeOut": true, "GoodForKids": true, "BusinessParking": {"garage": false, "street": false, "validated": false, "lot": false, "valet": false}}, "categories": ["Chinese", "Restaurants"], "hours": {}}, {"business_id": "FZ_edvdCN64D7JVWvm7fmw", "name": "Discount Drug Mart", "neighborhood": "", "address": "2253 Colorado Ave", "city": "Lorain", "state": "OH", "postal_code": "44052", "latitude": 41.4661518, "longitude": -82.1473922, "stars": 2.5, "review_count": 3, "is_open": 1, "attributes": {"BusinessParking": {"garage": false, "street": false, "validated": false, "lot": true, "valet": false}, "BusinessAcceptsCreditCards": true, "RestaurantsPriceRange2": 1, "BusinessAcceptsBitcoin": false, "BikeParking": true, "RestaurantsTakeOut": false, "WheelchairAccessible": true}, "categories": ["Cosmetics & Beauty Supply", "Food", "Drugstores", "Convenience Stores", "Shopping", "Beauty & Spas", "Grocery"], "hours": {"Monday": "8:00-22:00", "Tuesday": "8:00-22:00", "Friday": "8:00-22:00", "Wednesday": "8:00-22:00", "Thursday": "8:00-22:00", "Sunday": "9:00-22:00", "Saturday": "8:00-22:00"}}, {"business_id": "VU7ZP9Xoe3Uj_0lHC458Bw", "name": "Three Star Restaurant", "neighborhood": "", "address": "1806 E 28th St", "city": "Lorain", "state": "OH", "postal_code": "44055", "latitude": 41.4452359, "longitude": -82.1362978, "stars": 5.0, "review_count": 4, "is_open": 1, "attributes": {"GoodForMeal": {"dessert": false, "latenight": false, "lunch": false, "dinner": false, "breakfast": false, "brunch": false}, "GoodForKids": false, "RestaurantsAttire": "casual", "RestaurantsReservations": false, "BusinessAcceptsCreditCards": false, "RestaurantsPriceRange2": 1, "RestaurantsDelivery": false, "Ambience": {"romantic": false, "intimate": false, "classy": false, "hipster": false, "divey": false, "touristy": false, "trendy": false, "upscale": false, "casual": false}, "RestaurantsTakeOut": true, "RestaurantsGoodForGroups": true}, "categories": ["Diners", "Restaurants"], "hours": {}}, {"business_id": "ec0CUK3Svfogdd2GUVVCqA", "name": "Papasitos & Beer Mexican Grill", "neighborhood": "", "address": "2532 W Erie Ave", "city": "Lorain", "state": "OH", "postal_code": "44053", "latitude": 41.4578295, "longitude": -82.2042534, "stars": 3.0, "review_count": 5, "is_open": 1, "attributes": {"Alcohol": "beer_and_wine"}, "categories": ["Mexican", "Restaurants"], "hours": {"Monday": "11:00-22:00", "Tuesday": "11:00-22:00", "Friday": "11:00-23:00", "Wednesday": "11:00-22:00", "Thursday": "11:00-22:00", "Sunday": "11:00-21:00", "Saturday": "11:00-23:00"}}, {"business_id": "BSjJIFtg1BkLTCYJYzy7Og", "name": "Eastern Buffet", "neighborhood": "", "address": "4743 Oberlin Ave", "city": "Lorain", "state": "OH", "postal_code": "44053", "latitude": 41.4266004, "longitude": -82.1850342, "stars": 1.0, "review_count": 4, "is_open": 0, "attributes": {"Alcohol": "beer_and_wine", "HasTV": false, "RestaurantsGoodForGroups": false, "NoiseLevel": "quiet", "WiFi": "no", "RestaurantsAttire": "casual", "OutdoorSeating": false, "BusinessAcceptsCreditCards": true, "RestaurantsPriceRange2": 2, "RestaurantsTableService": true, "Ambience": {"romantic": false, "intimate": false, "classy": false, "hipster": false, "divey": false, "touristy": false, "trendy": false, "upscale": false, "casual": false}, "RestaurantsTakeOut": true, "GoodForKids": false, "BusinessParking": {"garage": false, "street": false, "validated": false, "lot": false, "valet": false}}, "categories": ["Restaurants", "Chinese", "Buffets"], "hours": {}}, {"business_id": "ts0_WrCwtz3qvJU50GP9Rg", "name": "Stratos On the Lake", "neighborhood": "", "address": "2500 W Erie Ave", "city": "Lorain", "state": "OH", "postal_code": "44053", "latitude": 41.458793, "longitude": -82.203867, "stars": 3.0, "review_count": 3, "is_open": 0, "attributes": {}, "categories": ["Restaurants", "American (New)"], "hours": {}}, {"business_id": "ploUOuMUe8r8Pv5iwxQjiA", "name": "Charleston Coffee House", "neighborhood": "", "address": "630 Broadway", "city": "Lorain", "state": "OH", "postal_code": "44052", "latitude": 41.4654693, "longitude": -82.1749828, "stars": 4.0, "review_count": 6, "is_open": 1, "attributes": {"BusinessParking": {"garage": false, "street": false, "validated": false, "lot": false, "valet": false}, "WiFi": "free", "OutdoorSeating": true, "BusinessAcceptsCreditCards": true, "RestaurantsPriceRange2": 1, "BikeParking": true}, "categories": ["Beer", "Wine & Spirits", "Event Planning & Services", "Venues & Event Spaces", "Bakeries", "Coffee & Tea", "Food"], "hours": {"Monday": "7:00-15:00", "Tuesday": "7:00-15:00", "Friday": "7:00-15:00", "Wednesday": "7:00-15:00", "Thursday": "7:00-15:00", "Saturday": "9:00-14:00"}}, {"business_id": "dmvhmb1bopqnSg1ofF59uQ", "name": "Marco's Pizza", "neighborhood": "", "address": "2311 Colorado Ave", "city": "Lorain", "state": "OH", "postal_code": "44052", "latitude": 41.4656083, "longitude": -82.1460657, "stars": 4.0, "review_count": 3, "is_open": 1, "attributes": {}, "categories": ["Pizza", "Restaurants"], "hours": {}}, {"business_id": "xFrUuSWIBMeuGLaHJeccEw", "name": "dabu", "neighborhood": "", "address": "939 Broadway", "city": "Lorain", "state": "OH", "postal_code": "44052", "latitude": 41.462836, "longitude": -82.172165, "stars": 5.0, "review_count": 12, "is_open": 0, "attributes": {"Alcohol": "full_bar", "HasTV": true, "RestaurantsGoodForGroups": true, "WiFi": "free", "RestaurantsAttire": "casual", "Smoking": "outdoor", "RestaurantsReservations": true, "OutdoorSeating": true, "BusinessAcceptsCreditCards": true, "RestaurantsPriceRange2": 1, "BikeParking": true, "RestaurantsDelivery": false, "Ambience": {"romantic": false, "intimate": false, "classy": false, "hipster": false, "divey": false, "touristy": false, "trendy": false, "upscale": false, "casual": false}, "RestaurantsTakeOut": true, "GoodForKids": true, "HappyHour": false, "WheelchairAccessible": true, "RestaurantsTableService": true}, "categories": ["Bars", "Ethnic Food", "Restaurants", "Food", "Nightlife", "Cocktail Bars", "Asian Fusion", "Specialty Food"], "hours": {"Tuesday": "11:00-21:00", "Friday": "11:00-21:00", "Wednesday": "11:00-21:00", "Thursday": "11:00-21:00", "Saturday": "15:00-0:00"}}, {"business_id": "NsF54LE_cc0OhFGPVkwDJw", "name": "Jackalope Lakeside", "neighborhood": "", "address": "301 Lakeside Ave", "city": "Lorain", "state": "OH", "postal_code": "44052", "latitude": 41.4731214, "longitude": -82.1741114, "stars": 3.0, "review_count": 54, "is_open": 1, "attributes": {"RestaurantsTableService": true, "GoodForMeal": {"dessert": false, "latenight": false, "lunch": false, "dinner": true, "breakfast": false, "brunch": false}, "Alcohol": "full_bar", "Caters": false, "HasTV": true, "RestaurantsGoodForGroups": true, "NoiseLevel": "average", "WiFi": "paid", "RestaurantsAttire": "casual", "RestaurantsReservations": true, "OutdoorSeating": true, "BusinessAcceptsCreditCards": true, "RestaurantsPriceRange2": 2, "BikeParking": true, "RestaurantsDelivery": false, "Ambience": {"romantic": false, "intimate": false, "classy": false, "hipster": false, "divey": false, "touristy": false, "trendy": false, "upscale": false, "casual": true}, "RestaurantsTakeOut": true, "GoodForKids": true, "WheelchairAccessible": true, "BusinessParking": {"garage": false, "street": false, "validated": false, "lot": true, "valet": false}}, "categories": ["Restaurants", "American (New)", "Seafood", "American (Traditional)"], "hours": {"Monday": "11:30-22:00", "Tuesday": "11:30-22:00", "Friday": "11:30-22:00", "Wednesday": "11:30-22:00", "Thursday": "11:30-22:00", "Sunday": "11:30-22:00", "Saturday": "11:30-22:00"}}, {"business_id": "ubVWVTrw4zvsqnaW22-BMw", "name": "Pine Garden Restaurant", "neighborhood": "", "address": "2519 W 21st St", "city": "Lorain", "state": "OH", "postal_code": "44053", "latitude": 41.4504, "longitude": -82.204025, "stars": 4.5, "review_count": 18, "is_open": 1, "attributes": {"RestaurantsTableService": true, "GoodForMeal": {"dessert": false, "latenight": false, "lunch": false, "dinner": false, "breakfast": false, "brunch": false}, "Alcohol": "full_bar", "HasTV": false, "RestaurantsGoodForGroups": true, "NoiseLevel": "average", "WiFi": "no", "RestaurantsAttire": "casual", "RestaurantsReservations": true, "OutdoorSeating": false, "BusinessAcceptsCreditCards": true, "RestaurantsPriceRange2": 1, "BikeParking": true, "RestaurantsDelivery": false, "Ambience": {"romantic": false, "intimate": false, "classy": false, "hipster": false, "divey": false, "touristy": false, "trendy": false, "upscale": false, "casual": false}, "RestaurantsTakeOut": true, "GoodForKids": true, "WheelchairAccessible": true, "BusinessParking": {"garage": false, "street": false, "validated": false, "lot": true, "valet": false}}, "categories": ["American (New)", "Chinese", "Restaurants"], "hours": {"Monday": "11:00-21:00", "Tuesday": "11:00-21:00", "Friday": "11:00-22:00", "Wednesday": "11:00-21:00", "Thursday": "11:00-21:00", "Sunday": "12:00-21:00", "Saturday": "11:00-22:00"}}, {"business_id": "glY_PSkxyM54izTHkd2mtw", "name": "Fligner's Supermarket", "neighborhood": "", "address": "1854 Broadway", "city": "Lorain", "state": "OH", "postal_code": "44052", "latitude": 41.4532559, "longitude": -82.1667978, "stars": 4.5, "review_count": 14, "is_open": 1, "attributes": {"BusinessParking": {"garage": false, "street": false, "validated": false, "lot": true, "valet": false}, "Caters": true, "BusinessAcceptsCreditCards": true, "RestaurantsPriceRange2": 2, "BikeParking": true, "RestaurantsTakeOut": true, "WheelchairAccessible": true}, "categories": ["Meat Shops", "Event Planning & Services", "Food", "Caterers", "Specialty Food", "Grocery"], "hours": {"Monday": "7:30-18:00", "Tuesday": "7:30-18:00", "Friday": "7:30-18:00", "Wednesday": "7:30-18:00", "Thursday": "7:30-18:00", "Sunday": "7:30-14:00", "Saturday": "7:30-18:00"}}]